"","Date","Year","Country","Location","Fatal (Y/N)","lon","lat"
"1","18-Sep-2016",2016,"USA","New Smyrna Beach, Volusia County","N",-80.9269984,29.0258191
"2","18-Sep-2016",2016,"USA","New Smyrna Beach, Volusia County","N",-80.9269984,29.0258191
"3","18-Sep-2016",2016,"USA","New Smyrna Beach, Volusia County","N",-80.9269984,29.0258191
"4","11-Sep-2016",2016,"USA","Ponte Vedra, St. Johns County","N",-81.3852595,30.2400058
"5","07-Sep-2016",2016,"USA","Makaha, Oahu","N",-158.2206477,21.4634328
"6","05-Sep-2016",2016,"USA","Kingston Plantation, Myrtle Beach, Horry County","N",-78.7800868,33.7737746
"7","04-Sep-2016",2016,"USA","New Smyrna Beach, Volusia County","N",-80.9269984,29.0258191
"8","01-Sep-2016",2016,"USA","Refugio State Beach, Santa Barbara County","N",-120.0738984,34.4609069
"9","29-Aug-2016",2016,"USA","New Smyrna Beach, Volusia County","N",-80.9269984,29.0258191
"10","29-Aug-2016",2016,"USA","New Smyrna Beach, Volusia County","N",-80.9269984,29.0258191
"11","25-Aug-2016",2016,"USA","Ponte Vedra, St. Johns County","N",-81.3852595,30.2400058
"12","06-Aug-2016",2016,"USA","Maui","N",-156.3319253,20.7983626
"13","04-Aug-2016",2016,"USA","New Smyrna Beach, Volusia County","N",-80.9269984,29.0258191
"14","27-Jul-2016",2016,"USA","Florida Keys, Florida, Monroe County","N",-99.7973918,36.0095232
"15","17-Jul-2016",2016,"USA","8 miles off Mobile","N",-83.3732847,42.4401638
"16","16-Jul-2016",2016,"USA","New Smyrna Beach, Volusia County","N",-80.9269984,29.0258191
"17","16-Jul-2016",2016,"USA","New Smyrna Beach, Volusia County","N",-80.9269984,29.0258191
"18","15-Jul-2016",2016,"USA","North Myrtle Beach, Horry County","N",-78.680016,33.8160058
"19","08-Jul-2016",2016,"USA","Capitola, Santa Cruz County","N",-121.953293,36.9752283
"20","07-Jul-2016",2016,"USA","Off Gloucester, Essec County","N",-70.662781,42.614076
"21","07-Jul-2016",2016,"USA","Off Palos Verdes peninsula, Los Angeles County","N",-118.374054,33.77266
"22","06-Jul-2016",2016,"USA","Melbourne Beach, Brevard County","N",-80.5603303,28.0683496
"23","27-Jun-2016",2016,"USA","Sullivan's Island","N",-79.8367511,32.7632323
"24","25-Jun-2016",2016,"USA","Atlantic Beach, Emerald Isle, Carteret County","N",-76.7377872,34.7088563
"25","21-Jun-2016",2016,"USA","North Myrtle Beach, Horry County","N",-78.680016,33.8160058
"26","21-Jun-2016",2016,"USA","Pelican Beach Park, Satellite Beach, Brevard County","N",-80.5877597,28.1673007
"27","15-Jun-2016",2016,"USA","Kalapaki Beach, Kauai","N",-159.3501759,21.9605229
"28","14-Jun-2016",2016,"USA","Pirates Beach, Galveston","N",-94.9365782,29.2047732
"29","11-Jun-2016",2016,"USA","Atlantic Beach, Emerald Isle, Carteret County","N",-76.7377872,34.7088563
"30","07-Jun-2016",2016,"USA","Folly Beach, Charleston County","N",-79.9403673,32.6551798
"31","05-Jun-2016",2016,"USA","Flagler Beach, Flagler County","N",-81.1270035,29.4749754
"32","29-May-2016",2016,"USA","Corona Del Mar, Newport, Orange County","N",-117.8730142,33.5978595
"33","29-May-2016",2016,"USA","Neptune, Duval County","N",-81.3964734,30.311908
"34","22-May-2016",2016,"USA","Vero Beach, Indian River County","N",-80.3972736,27.6386434
"35","21-May-2016",2016,"USA","St. Petersburg, Pinellas County","N",-82.6267345,27.7518284
"36","21-May-2016",2016,"USA","Hugenot Beach , Jacksonville, Duval County","N",-81.420617,30.4109625
"37","18-May-2016",2016,"USA","Ponte Vedra, St. Johns County","N",-81.3852595,30.2400058
"38","15-May-2016",2016,"USA","Boca Raton, Palm Beach County","N",-80.1289321,26.3683064
"39","03-May-2016",2016,"USA","Wailea Beach, Maui","N",-156.443335,20.68744
"40","23-Apr-2016",2016,"USA","New Smyrna Beach, Volusia County","N",-80.9269984,29.0258191
"41","13-Apr-2016",2016,"USA","Off Singer Island, Palm Beach County","N",-80.0375408,26.7850625
"42","07-Apr-2016",2016,"USA","Florida Keys, Florida, Monroe County","N",-99.7973918,36.0095232
"43","07-Apr-2016",2016,"USA","Corners Beach, Jupiter, Palm Beach County","N",-80.1125957,26.7077343
"44","31-Mar-2016",2016,"USA","Olowalu, Maui","N",-156.625,20.8147221
"45","28-Mar-2016",2016,"USA","Fort Myers Beach, Lee County","N",-81.948145,26.4520248
"46","13-Mar-2016",2016,"USA","Bolsa Chica State Park, Orange County","N",-118.0487973,33.6955698
"47","11-Mar-2016",2016,"USA","Vero Beach, St. Lucie County","N",-80.3143223,27.4606361
"48","04-Mar-2016",2016,"USA","Ocean Reef Park, Singer Island, Palm Beach County","N",-80.0328831,26.7937693
"49","28-Jan-2016",2016,"USA","Hanalei Bay, Kauai","N",-159.5067583,22.2090776
"50","25-Jan-2016",2016,"USA","Hanalei Bay, Kauai, ","N",-159.5067583,22.2090776
"51","24-Jan-2016",2016,"USA","Off Surfside","N",-117.25745,32.975655
"52","42392",2016,"USA","Wailea Beach, Maui","N",-156.443335,20.68744
"53","22-Dec-2015",2015,"USA","La'aloa Beach Park","N",-155.9653439,19.5941734
"54","16-Nov-2015",2015,"USA","Playalinda Beach, Brevard County","N",-80.6318287,28.6555177
"55","15-Nov-2015",2015,"USA","Palm Beach, Palm Beach County","N",-80.2767327,26.6514503
"56","15-Nov-2015",2015,"USA","Ocean Reef Park, Singer Island, Palm Beach County","N",-80.0328831,26.7937693
"57","07-Nov-2015",2015,"USA","Paradise Beach, Melbourne, Brevard County","N",-80.5759862,28.1226018
"58","03-Nov-2015",2015,"USA","Kehena Beach, Hawaii","N",-154.9291529,19.3946242
"59","01-Nov-2015",2015,"USA","Cocoa Beach, Brevard  County","N",-80.6075513,28.3200067
"60","28-Oct-2015",2015,"USA","oahu, hawaii","N",-158.0000565,21.4389123
"61","21-Oct-2015",2015,"USA","Playalinda Beach, Brevard County","N",-80.6318287,28.6555177
"62","19-Oct-2015",2015,"USA","Deerfield Beach, Broward County","N",-80.0997657,26.3184123
"63","17-Oct-2015",2015,"USA","Waikiki, ","N",-157.835698,21.285002
"64","17-Oct-2015",2015,"USA","Lanikai Beach, Kailua, Oahu","N",-157.7154355,21.3930921
"65","13-Oct-2015",2015,"USA","Off Leffingwell Landing, San Luis Obispo County","N",-121.1214197,35.5838507
"66","09-Oct-2015",2015,"USA","Shipyard Beach Club, Hilton Head Island, Beaufort County","N",-80.745626,32.156871
"67","09-Oct-2015",2015,"USA","Leftovers, Oahu","N",-158.073538,21.628128
"68","05-Oct-2015",2015,"USA","Pepper Park Beach, St. Lucie County","N",-80.3016525,27.498763
"69","05-Oct-2015",2015,"USA","Galveston","N",-94.7976958,29.3013479
"70","04-Oct-2015",2015,"USA","New Smyrna Beach, Volusia County","N",-80.9269984,29.0258191
"71","29-Sep-2015",2015,"USA","Vilano Beach, St.  Johns County","N",-81.3020173,29.9385794
"72","24-Sep-2015",2015,"USA","Horseshoe Rock, Santa Barbara County","N",NA,NA
"73","20-Sep-2015",2015,"USA","New Smyrna Beach, Volusia County","N",-80.9269984,29.0258191
"74","20-Sep-2015",2015,"USA","Upolu Point, North Kohala, Big Island","N",-155.8545221,20.2689664
"75","20-Sep-2015",2015,"USA","Fernandina Beach, Amelia Island, Nassau County","N",-81.4625919,30.6696818
"76","20-Sep-2015",2015,"USA","Vilano Beach, St.  Johns County","N",-81.3020173,29.9385794
"77","18-Sep-2015",2015,"USA","Big Talbot Island, Duval County","N",-81.44,30.4830556
"78","17-Sep-2015",2015,"USA","Jacksonville Beach, Duval County","N",-81.3961338,30.2841224
"79","06-Sep-2015",2015,"USA","El Pescador Beach, Los Angeles County","N",-118.8921386,34.0403608
"80","05-Sep-2015",2015,"USA","Deer Creek Beach, Ventura County","N",-118.9910772,34.0761836
"81","03-Sep-2015",2015,"USA","Myrtle Beach, Horry County","N",-78.8866943,33.6890603
"82","29-Aug-2015",2015,"USA","Morro Strand State Beach, San Luis Obispo County","N",-120.8664024,35.3918466
"83","29-Aug-2015",2015,"USA","Morro Bay, San Luis Obispo County","N",-120.8499924,35.3659445
"84","22-Aug-2015",2015,"USA","Cocoa Beach, Brevard  County","N",-80.6075513,28.3200067
"85","20-Aug-2015",2015,"USA","Murrells Inlet, Georgetown County","N",-79.0414261,33.5510021
"86","19-Aug-2015",2015,"USA","Jacksonville Beach, Duval County","N",-81.3961338,30.2841224
"87","18-Aug-2015",2015,"USA","Santa Barbara County","N",-119.6982057,34.4208321
"88","10-Aug-2015",2015,"USA","Cortes Bank","N",-119.1666667,32.4666667
"89","26-Jul-2015",2015,"USA","Daytona Beach, Volusia County","N",-81.0228331,29.2108147
"90","26-Jul-2015",2015,"USA","Edisto Beach, Colleton County","N",-80.3348229,32.4793551
"91","23-Jul-2015",2015,"USA","La Jolla, San Diego County","N",-117.2712717,32.8328112
"92","10-Jul-2015",2015,"USA","Huntington Beach, Orange County","N",-117.9988026,33.6594835
"93","08-Jul-2015",2015,"USA","Huntington Beach, Orange County","N",-117.9988026,33.6594835
"94","04-Jul-2015",2015,"USA","Off Surf City, Pender County","N",-77.562249,34.449088
"95","01-Jul-2015",2015,"USA","Ocracoke, Lifeguard Beach, National Park Service, Hyde County","N",NA,NA
"96","30-Jun-2015",2015,"USA","Isle of Palms County Park, Isle of Palms, Charleston County","N",-79.785866,32.786886
"97","27-Jun-2015",2015,"USA","Rodanthe, Dare County","N",-75.4655882,35.600383
"98","26-Jun-2015",2015,"USA","Jacksonville Beach, Duval County","N",-81.3961338,30.2841224
"99","26-Jun-2015",2015,"USA","South Beach, Hunting Island State Park, Beaufort County","N",-80.4521216,32.3585481
"100","25-Jun-2015",2015,"USA","Avon, Hatteras Island, Outer Banks, Dare County","N",-75.5108445,35.3521855
"101","24-Jun-2015",2015,"USA","Surf City","N",-77.5460805,34.4271121
"102","23-Jun-2015",2015,"USA","St. Helena Island, Beaufort County","N",-80.5549561,32.3972009
"103","17-Jun-2015",2015,"USA","Daytona Beach Shores","N",-80.9828323,29.1760933
"104","14-Jun-2015",2015,"USA","Oak Island, Brunswick County","N",-78.161106,33.9165623
"105","14-Jun-2015",2015,"USA","Oak Island, Brunswick County","N",-78.161106,33.9165623
"106","13-Jun-2015",2015,"USA","Off San Diego","N",-117.147394,32.7710407
"107","11-Jun-2015",2015,"USA","Ocean Isle, Brunswick County","N",-78.426672,33.8943393
"108","07-Jun-2015",2015,"USA","Lori Wilson Park, Cocoa Beach, Brevard  County","N",-80.6094697,28.3371371
"109","05-Jun-2015",2015,"USA","Fort Lauderdale","N",-80.1373174,26.1224386
"110","29-May-2015",2015,"USA","Cocoa Beach, Brevard  County","N",-80.6075513,28.3200067
"111","29-May-2015",2015,"USA","New Smyrna Beach, Volusia County","N",-80.9269984,29.0258191
"112","24-May-2015",2015,"USA","Cocoa Beach, Brevard  County","N",-80.6075513,28.3200067
"113","20-May2015",2015,"USA","New Smyrna Beach, Volusia County","N",-80.9269984,29.0258191
"114","15-May-2015",2015,"USA","Sullivan's Island","N",-79.8367511,32.7632323
"115","07-May-2015",2015,"USA","Cocoa Beach, Brevard  County","N",-80.6075513,28.3200067
"116","29-Apr-2015",2015,"USA","Kanahena Cove","Y",-156.437518,20.618084
"117","26-Apr-2015",2015,"USA","Resident's Beach, Marco Island","N",-81.7331861,25.9354415
"118","13-Apr-2015",2015,"USA","Florida Keys, Florida, Monroe County","N",-81.5357506,25.0273356
"119","03-Apr-2015",2015,"USA","3 miles off Jupiter, Palm Beach County","N",-80.0743038,26.8734701
"120","18-Mar-2015",2015,"USA","Hapuna Beach","N",-155.8250247,19.9913871
"121","27-Jan-2015",2015,"USA","Lahaina","N",-156.6825,20.8783333
"122","19-Jan-2015",2015,"USA","Off Panama City","N",-85.540141,30.2646379
"123","08-Jan-2015",2015,"USA","","N",NA,NA
"124","01-Jan-2015",2015,"USA","Windsor Beach, Indian River County","N",-80.4145669,27.7886508
"125","28-Dec-2014",2014,"USA","Montaña de Oro State Park, San Luis Obispo County ","N",18.49041,-22.95764
"126","16-Nov-2014",2014,"USA","Indian Harbor Beach, Brevard County","N",-80.5883855,28.1489021
"127","Reported 17-Nov-2014",2014,"USA","Franklin Point, San Mateo County","N",-122.3605292,37.1496689
"128","13-Nov-2014",2014,"USA","Airplane Beach, Lahina, West Maui","N",-156.6749418,20.8672074
"129","08-Nov-2014",2014,"USA","Fort Pierce Inlet State Park, St. Lucie County","N",-80.3016686,27.4820331
"130","31-Oct-2014",2014,"USA","North Kohala, Hawaii County","N",-155.8500639,19.6924307
"131","22-Oct-2014",2014,"USA","Kihei, Maui","N",-156.4450063,20.7644275
"132","20-Oct-2014",2014,"USA","Kahului, Maui","N",-156.4729469,20.8893351
"133","19-Oct-2014",2014,"USA","Leadbetter Beach, Santa Barbara County","N",-119.6993452,34.4023481
"134","18-Oct-2014",2014,"USA","Maalaea, South Maui","N",-156.5141667,20.7963889
"135","14-Oct-2014",2014,"USA","Hilton Head Island, Beaufort County","N",-80.752608,32.216316
"136","12-Oct-2014",2014,"USA","Melbourne Beach, Brevard County","N",-80.5603303,28.0683496
"137","07-Oct-2014",2014,"USA","Cherie Down Park, Brevard County","N",-80.5969563,28.3918352
"138","05-Oct-2014",2014,"USA","New Smyrna Beach, Volusia County","N",-80.9269984,29.0258191
"139","05-Oct-2014",2014,"USA","New Smyrna Beach, Volusia County","N",-80.9269984,29.0258191
"140","03-Oct-2014",2014,"USA","Santa Barbara County","N",-119.6982057,34.4208321
"141","03-Oct-2014",2014,"USA","Santa Barbara County","N",-119.6982057,34.4208321
"142","02-Oct-2014",2014,"USA","Walls Beach, Vandenberg AFB, Santa Barbara County","N",-120.6007178,34.7069443
"143","21-Sep-2014",2014,"USA","New Smyrna Beach, Volusia County","N",-80.9269984,29.0258191
"144","13-Sep-2014",2014,"USA","Manresa State Beach, Santa Cruz County","N",-121.8619877,36.9324566
"145","06-Sep-2014",2014,"USA","Katrina Cut, Dauphin Island, Mobile County","N",NA,NA
"146","03-Sep-2014",2014,"USA","Manomet Point, Plymouth, Plymouth County","N",-70.5488323,41.9221287
"147","02-Sep-2014",2014,"USA","Fletcher Beach, Hutchinson Island, Martin County","N",-80.1690813,27.2054998
"148","31-Aug-2014",2014,"USA","New Smyrna Beach, Volusia County","N",-80.9269984,29.0258191
"149","29-Aug-2014",2014,"USA","Ponce Inlet, Volusia County","N",-80.9369983,29.0963729
"150","29-Aug-2014",2014,"USA","Atlantic Beach, Duval County","N",-81.398696,30.3344077
"151","28-Aug-2014",2014,"USA","Assateague National Seashore","N",-75.2362382,38.0607973
"152","27-Aug-2014",2014,"USA","Figure Eight Island,  New Hanover County","N",-77.7444928,34.2693745
"153","27-Aug-2014",2014,"USA","Surfside Beach, Horry  County","N",-78.9730887,33.6060031
"154","Reported 25-Aug-2014",2014,"USA","Apalachicola Bay","N",-85.0025539,29.6718143
"155","24-Aug-2014",2014,"USA","Off Masonboro Island, New Hanover County","N",-77.8510213,34.1329044
"156","12-Aug-2014",2014,"USA","3 to 4 miles west of Indian Pass, Gulf County","N",NA,NA
"157","10-Aug-2014",2014,"USA","Hallandale Beach, Broward County","N",-80.148379,25.9812024
"158","09-Aug-2014",2014,"USA","Lori Wilson Park, Cocoa Beach, Brevard  County","N",-80.6094697,28.3371371
"159","08-Aug-2014",2014,"USA","Lake Ponchartain off Southshore Harbor, New Orleans","N",-90.0155759,30.0380591
"160","06-Aug-2014",2014,"USA","Folly Beach, Charleston County","N",-79.9403673,32.6551798
"161","05-Aug-2014",2014,"USA","Cocoa Beach, Brevard  County","N",-80.6075513,28.3200067
"162","02-Aug-2014",2014,"USA","South of Cocoa Beach, Brevard County","N",-80.6075513,28.3200067
"163","02-Aug-2014",2014,"USA","Table Beach, Brevard County","N",-80.6056434,28.2666061
"164","27-Jul-2014",2014,"USA","Sunset Beach, Brunswick County","N",-78.512231,33.880728
"165","21-Jul-2014",2014,"USA","Indialantic, Brevard County","N",-80.5656079,28.0894599
"166","16-Jul-2014",2014,"USA","Paia Bay, Maui","N",-156.3836273,20.9173855
"167","14-Jul-2014",2014,"USA","Okaloosa Island","N",-86.5977355,30.3980135
"168","12-Jul-2014",2014,"USA","Masonboro Island, New Hanover County","N",-77.8510213,34.1329044
"169","9-Jul-2014",2014,"USA","New Smyrna Beach, Volusia County","N",-80.9269984,29.0258191
"170","5-Jul-2014",2014,"USA","Manhattan Beach, Los Angeles County","N",-118.4109089,33.8847361
"171","5-Jul-2014",2014,"USA","Oceano Dunes State Beach, San Luis Obispo County","N",-120.6268771,35.1065206
"172","3-Jul-2014",2014,"USA","Isle of Palms, Charleston County","N",-79.7343791,32.8194131
"173","09-Jun-2014",2014,"USA","Cape Henlopen State Park, Sussex County","N",-75.1015963,38.7856582
"174","07-Jun-2014",2014,"USA","West Beach, Galveston","N",-94.9418083,29.2000762
"175","01-Jun-2014",2014,"USA","Fort Lauderdale","N",-80.1373174,26.1224386
"176","01-Jun-2014",2014,"USA","","N",NA,NA
"177","15-May-2014",2014,"USA","Juan Ponce de León Landing, Melbourne Beach, Brevard County","N",18.49041,-22.95764
"178","13-May2014",2014,"USA","Jacksonville Beach, Duval County","N",-81.3961338,30.2841224
"179","11-May-2014",2014,"USA","Tybee Island, Chatham County","N",-80.845666,32.0002152
"180","Reported 10-May-2014",2014,"USA","Bethel Shoals, Indian River County","N",NA,NA
"181","06-May-2014",2014,"USA","Coligny Beach, Hilton Head, Beaufort County","N",-80.7510645,32.1414846
"182","01-May-2014",2014,"USA","New Smyrna Beach, Volusia County","N",-80.9269984,29.0258191
"183","22-Apr-2014",2014,"USA","Cocoa Beach, Brevard  County","N",-80.6075513,28.3200067
"184","15-Apr-2014",2014,"USA","New Smyrna Beach, Volusia County","N",-80.9269984,29.0258191
"185","04-Apr-2014",2014,"USA","New Smyrna Beach, Volusia County","N",-80.9269984,29.0258191
"186","04-Apr-2014",2014,"USA","New Smyrna Beach, Volusia County","N",-80.9269984,29.0258191
"187","22-Mar-2014",2014,"USA","Delray Beach","N",-80.0728201,26.4614625
"188","21-Mar-2014",2014,"USA","Macarthur State Park","N",-80.04404,26.824641
"189","02-Mar-2014",2014,"USA","Santa Lucea Beach, South Hutchinson Island, St. Lucie County","N",-80.1710775,27.2073806
"190","11-Dec-2013",2013,"USA","Ninole Bay, Hawaii County","N",-155.6658568,19.5429151
"191","10-Dec-2013",2013,"USA","Cocoa Beach, Brevard  County","N",-80.6075513,28.3200067
"192","02-Dec-2013",2013,"USA","Between  Makena & Molokini, Maui","Y",-156.4447925,20.6316217
"193","29-Nov2013",2013,"USA","Keawekapu Beach, Kihei, Maui","N",-156.4464766,20.703966
"194","22-Nov-2013",2013,"USA","Gleneden Beach, Lincoln County","N",-124.034593,44.8814151
"195","07-Nov-2013",2013,"USA","Bay Head, Ocean County","N",-74.0543036,40.0717828
"196","07-Nov-2013",2013,"USA","Floridana Beach, Brevard County","N",-80.497996,27.9456312
"197","31-Oct-2013",2013,"USA","Kanaha Beach, Maui","N",-156.4405938,20.8996987
"198","23-Oct-2013",2013,"USA","Waiehu, Maui","N",-156.5045315,20.9297229
"199","20-Oct-2013",2013,"USA","Pila'a Beach, Kaua'i","N",-159.3637276,22.2114905
"200","19-Oct-2013",2013,"USA","Miami Beach","N",-80.1300455,25.790654
"201","06-Oct-2013",2013,"USA","Bunkers, Humboldt Bay, Eureka, Humboldt County","N",NA,NA
"202","10-Oct-2013",2013,"USA","Destin, Okaloosa County","N",-86.4957833,30.3935337
"203","29-Sep-2013",2013,"USA","Melbourne Beach, Brevard County","N",-80.5603303,28.0683496
"204","25-Sep-2013",2013,"USA","Panama City, Bay County","N",-85.6602058,30.1588129
"205","21-Sep-2013",2013,"USA","Ormond Beach, Volusia County","N",-81.0558894,29.2858129
"206","21-Sep-2013",2013,"USA","Carlin Park, Jupiter, Palm Beach County","N",-80.0691932,26.9291055
"207","14-Sep-2013",2013,"USA","Casino Beach, Pensacola, Escambia County","N",-87.1407666,30.331882
"208","12-Sep-2013",2013,"USA","New Smyrna Beach,  Volusia County","N",-80.9269984,29.0258191
"209","08-Sep-2013",2013,"USA","St. Helena Island, Beaufort County","UNKNOWN",-80.5549561,32.3972009
"210","07-Sep-2013",2013,"USA","New Smyrna Beach,  Volusia County","N",-80.9269984,29.0258191
"211","07-Sep-2013",2013,"USA","New Smyrna Beach,  Volusia County","N",-80.9269984,29.0258191
"212","02-Sep-2013",2013,"USA","Ormond Beach, Volusia County","N",-81.0558894,29.2858129
"213","01-Sep-2013",2013,"USA","Key West Aquarium","N",-81.807332,24.55907
"214","01-Sep-2013",2013,"USA","St Augustine Beach, St Johns County","N",-81.2711546,29.8439828
"215","31-Aug-2013",2013,"USA","Butterfly Beach, Montecito, Santa Barbara County","N",-119.6491956,34.4176221
"216","29-Aug-2013",2013,"USA","Catalina Channel","N",-118.4163103,33.3878856
"217","25-Aug-2013",2013,"USA","Winterhaven Park,           Ponce Inlet, Volusia County","N",-80.9415953,29.1047098
"218","18-Aug-2013",2013,"USA","Pohoiki","N",-154.8418399,19.4576939
"219","17-Aug-2013",2013,"USA","Pillar Point, Half-Moon Bay, San Mateo County","N",-122.4831582,37.5015293
"220","14-Aug-2013",2013,"USA","Makenat, Maui","Y",-156.4425,20.6544444
"221","13-Aug-2013",2013,"USA","Ka'a Point, Maui","N",-156.446773,20.898381
"222","11-Aug-2013",2013,"USA","Folly Beach","N",-79.9403673,32.6551798
"223","05-Aug-2013",2013,"USA","Sanibel Island, Lee County","N",-82.0223137,26.4489695
"224","31-Jul-2013",2013,"USA","Ulua Beach, Maui","N",-156.4436167,20.6903433
"225","30-Jul-2013",2013,"USA","Isle of Palms, Charleston County","N",-79.7343791,32.8194131
"226","29-Jul-2013",2013,"USA","White Plains Beach, Oahu","N",-158.0453427,21.3037251
"227","19-Jul-2013",2013,"USA","Gulf Shores, Baldwin County","N",-87.7008193,30.2460361
"228","Reported 17-Jul-2013",2013,"USA","Butler Beach, St Augustine,       St. Johns County","N",-81.2635843,29.7882135
"229","11-Jul-2013",2013,"USA","Holden Beach. Brunswick County","N",-78.3038892,33.9135061
"230","25-Jun-2013",2013,"USA","Pacific State , San Mateo County","N",-122.3050823,37.5349925
"231","25-Jun-2013",2013,"USA","Jacksonville, Duval County","N",-81.655651,30.3321838
"232","25-Jun-2013",2013,"USA","Kiawah Island, Charleston County","N",-80.0848166,32.6082373
"233","18-Jun-2013",2013,"USA","Kona Coast State Park","N",-156.0195894,19.785139
"234","17-Jun-2013",2013,"USA","Surfside Beach, Brazoria County","N",-95.2888257,28.9444142
"235","15-Jun-2013",2013,"USA","Atlantic Beach, Duval County","N",-81.398696,30.3344077
"236","Reported 14-Jun-2013",2013,"USA","Myrtle Beach, Horry County","N",-78.8866943,33.6890603
"237","06-Jun-2013",2013,"USA","Off Snipe Point, Florida Keys, Florida, Monroe County","N",-81.6739784,24.6981975
"238","27-May-2013",2013,"USA","Halewia, Oahu","N",-158.1034112,21.5927614
"239","27-May-2013",2013,"USA","Ormond Beach, Volusia County","N",-81.0558894,29.2858129
"240","08-May-2013",2013,"USA","Tourmaline Surf Park, San Diego County","Y",-117.2616612,32.8054224
"241","04-May-2013",2013,"USA","Melbourne Beach, Brevard County","N",-80.5603303,28.0683496
"242","17-Apr-2013",2013,"USA","Near Boynton Beach, Palm Beach County","N",-80.0905465,26.5317866
"243","13-Apr-2013",2013,"USA","New Smyrna Beach, Volusia County","N",-80.9269984,29.0258191
"244","04-Apr-2013",2013,"USA","Jensen Beach, Martin County ","N",-80.2297697,27.2544906
"245","02-Apr-2013",2013,"USA","Ka’anapali Shores","N",18.49041,-22.95764
"246","21-Feb-2013",2013,"USA","Ka'anapali, Honokowai, Maui","N",-156.691107,20.934012
"247","21-Feb-2013",2013,"USA","Paia Bay, Maui","N",-156.3836273,20.9173855
"248","10-Feb-2013",2013,"USA","""""Stuart Rocks"""", Martin County","N",-80.2237488,27.195541
"249","16-Jan-2013",2013,"USA","Kiholo Bay","N",-155.9233432,19.8547732
"250","31-Dec-2012",2012,"USA","Jensen Beach, Martin County ","N",-80.2297697,27.2544906
"251","05-Dec-2012",2012,"USA","Kauai","N",-159.5261238,22.0964396
"252","30-Nov-2012",2012,"USA","Kihei, Maui","N",-156.4450063,20.7644275
"253","19-Nov-2012",2012,"USA","Melbourne Beach, Brevard County","N",-80.5603303,28.0683496
"254","04-Nov-2012",2012,"USA","Makena Landing, Maui","N",-156.4411932,20.6540154
"255","04-Nov-2012",2012,"USA","Davidson's Surf Break, Kekaha, Kaua'i","N",-159.7304201,21.9716899
"256","30-Oct-2012",2012,"USA","Humboldt Bay, Eureka, Humboldt County","N",-124.242601,40.7195153
"257","27-Oct-2012",2012,"USA","Makena Landing, Maui","N",-156.4411932,20.6540154
"258","23-Oct-2012",2012,"USA","Surf Beach, Lompoc, Santa Barbara County","Y",-120.6049955,34.6829861
"259","19-Oct-2012",2012,"USA","Seaport, Brevard County","N",-80.613234,28.418201
"260","18-Oct-2012",2012,"USA","Ponce Inlet, Volusia County","N",-80.9369983,29.0963729
"261","18-Oct-2012",2012,"USA","Kanaha Beach, Maui","N",-156.4405938,20.8996987
"262","16-Oct-2012",2012,"USA","Hobe Sound","N",-80.1364323,27.059498
"263","10-Oct-2012",2012,"USA","Davenport Landing, Santa Cruz County","N",-122.2158654,37.0258837
"264","25-Sep-2012",2012,"USA","Melbourne Beach, Brevard County","N",-80.5603303,28.0683496
"265","24-Sep-2012",2012,"USA","Spanish House Beach, Brevard County","N",-80.7260209,28.3542063
"266","16-Sep-2012",2012,"USA"," Cocoa Beach, Brevard  County","N",-80.6075513,28.3200067
"267","09-Sep-2012",2012,"USA","New Smyrna Beach, Volusia County","N",-80.9269984,29.0258191
"268","08-Sep-2012",2012,"USA","Lori Wilson Park, Cocoa Beach, Brevard  County","N",-80.6094697,28.3371371
"269","08-Sep-2012",2012,"USA","South Beach, Miami-Dade County","N",-80.1340772,25.7826123
"270","06-Sep-2012",2012,"USA","Neptune Beach, Duval County","N",-81.3964734,30.311908
"271","06-Sep-2012",2012,"USA","St. Augustine Beach, St. John's County","N",-81.2711546,29.8439828
"272","04-Sep-2012",2012,"USA","Melbourne Beach, Brevard County","N",-80.5603303,28.0683496
"273","02-Sep-2012",2012,"USA","New Smyrna Beach, Volusia County","N",-80.9269984,29.0258191
"274","02-Sep-2012",2012,"USA","Spreckelsville, Maui","N",-156.4051911,20.9107182
"275","02-Sep-2012",2012,"USA","New Smyrna Beach, Volusia County","N",-80.9269984,29.0258191
"276","15-Aug-2012",2012,"USA","Gulf Shores, Baldwin County","N",-87.7008193,30.2460361
"277","08-Aug-2012",2012,"USA","Key Largo","N",-80.4472802,25.0865151
"278","31-Jul-2012",2012,"USA","Topanga Beach, Los Angeles County","N",-118.6021321,34.0919452
"279","30-Jul-2012",2012,"USA","Maha‘ulepu Beach, Kauai","N",18.49041,-22.95764
"280","30-Jul-2012",2012,"USA","Ballston Beach, Truro, Cape Cod","N",-70.0200319,42.0000381
"281","24-Jul-2012",2012,"USA","Ocean Isle, Brunswick County","N",-78.426672,33.8943393
"282","08-Jul-2012",2012,"USA","North Topsail Beach, Onslow County","N",-77.43163,34.4901665
"283","07-Jul-2012",2012,"USA","Pleasure Point, Santa Cruz County","N",-121.9688491,36.9577286
"284","26-Jun-2012",2012,"USA","Juno Beach, Palm Beach County","N",-80.0533743,26.8797819
"285","26-Jun-2012",2012,"USA","New Smyrna Beach, Volusia County","N",-80.9269984,29.0258191
"286","26-Jun-2012",2012,"USA","Kahana Beach, Maui","N",-156.6801284,20.9692582
"287","22-Jun-2012",2012,"USA","Bathtub Reef  Beach, Stuart, Martin County","N",-80.160359,27.1863376
"288","19-Jun-2012",2012,"USA","Myrtle Beach, Horry County","N",-78.8866943,33.6890603
"289","18-Jun-2012",2012,"USA","Ocean Isle, Brunswick County","N",-78.426672,33.8943393
"290","15-Jun-2012",2012,"USA","Summerland Key, Monroe County","N",-81.4448502,24.6613356
"291","14-Jun-2012",2012,"USA","Myrtle Beach, Horry County","N",-78.8866943,33.6890603
"292","14-Jun-2012",2012,"USA","Myrtle Beach, Horry County","N",-78.8866943,33.6890603
"293","14-Jun-2012",2012,"USA","Myrtle Beach, Horry County","N",-78.8866943,33.6890603
"294","14-Jun-2012",2012,"USA","Myrtle Beach, Horry County","N",-78.8866943,33.6890603
"295","02-Jun-2012",2012,"USA","Bethune Beach, Volusia County","N",-80.844768,28.941441
"296","02-Jun-2012",2012,"USA","Myrtle Beach, Horry County","N",-78.8866943,33.6890603
"297","31-May-2012",2012,"USA","Avon, Hatteras Island, Outer Banks, Dare County","N",-75.5108445,35.3521855
"298","23-May-2012",2012,"USA","Jacksonville, Duval County","N",-81.655651,30.3321838
"299","20-May-2012",2012,"USA","Iroquiois Point, Oahu","N",-157.9802778,21.3275
"300","12-May-2012",2012,"USA","Leffingwell Landing, Cambria,  San Luis Obispo County","N",-121.1214197,35.5838507
"301","09-May-2012",2012,"USA","Vero Beach, Indian River County","N",-80.3972736,27.6386434
"302","06-May-2012",2012,"USA","Off Catalina Island","N",-118.325129,33.3436216
"303","19-Apr-2012",2012,"USA","Indialantic, Brevard County","N",-80.5656079,28.0894599
"304","03-Apr-2012",2012,"USA","Leftovers near Chun's Reef, Oahu","N",-158.073538,21.628128
"305","Apr-2013",2012,"USA","Sanibel Island, Lee County","N",-82.0223137,26.4489695
"306","24-Mar-2012",2012,"USA","New Smyrna Beach, Volusia County","N",-80.9269984,29.0258191
"307","15-Mar-2012",2012,"USA","Jensen Beach, Martin County ","N",-80.2297697,27.2544906
"308","14-Mar-2012",2012,"USA","New Smyrna Beach, Volusia County","N",-80.9269984,29.0258191
"309","14-Mar-2012",2012,"USA","New Smyrna Beach, Volusia County","N",-80.9269984,29.0258191
"310","04-Mar-2012",2012,"USA","Playalinda Beach, Brevard County","N",-80.6318287,28.6555177
"311","26-Feb-2012",2012,"USA","Palm Beach Inlet, Palm Beach County","N",-80.037263,26.772285
"312","27-Jan-2012",2012,"USA","Lanai","N",-156.9273193,20.8165975
"313","13-Jan-2012",2012,"USA","Lincoln City, Lincoln County","N",-124.0178914,44.9581644
"314","31-Dec-2011",2011,"USA","Jupiter, Palm Beach County","N",-80.0942087,26.9342246
"315","23-Dec-2011",2011,"USA","New Smyrna Beach","N",-80.9269984,29.0258191
"316","21-Dec-2011",2011,"USA","Makahuena Point, Kauai","N",-159.4463529,21.8717452
"317","06-Dec-2011",2011,"USA","Seaside Cove","N",-117.9500871,33.8528246
"318","22-Nov-2011",2011,"USA","Pigeon Point","N",-122.3928022,37.1829202
"319","29-Oct-2011",2011,"USA","Marina State Beach, Monterey County","N",-121.8092841,36.6927933
"320","20-Oct-2011",2011,"USA","Newport, Lincoln County","N",-124.0534505,44.6367836
"321","11-Oct-2011",2011,"USA","Cape Canaveral","N",-80.5771737,28.4740089
"322","10-Oct-2011",2011,"USA","Seaside","N",-86.1429286,30.3216504
"323","02-Oct-2011",2011,"USA","Santa Maria Island, Manatee County","N",-82.7144811,27.5041264
"324","01-Oct-2011",2011,"USA","Gulf Shores, Baldwin County","N",-87.7008193,30.2460361
"325","30-Sep-2011",2011,"USA","Hatillo Beach","N",-66.7934203,18.4919313
"326","24-Sep-2011",2011,"USA","Santa Maria Island, Manatee County","N",-82.7144811,27.5041264
"327","24-Sep-2011",2011,"USA","North Myrtle Beach, Horry County","N",-78.680016,33.8160058
"328","20-Sep-2011",2011,"USA","Kauai","N",-159.5261238,22.0964396
"329","16-Sep-2011",2011,"USA","New Smyrna Beach","N",-80.9269984,29.0258191
"330","11-Sep-2011",2011,"USA","Samoa Beach, Humboldt County","N",-124.1991726,40.8062813
"331","04-Sep-2011",2011,"USA","Nimitz State Beach, Oahu","N",-158.0666611,21.299765
"332","02-Sep-2011",2011,"USA","New Smyrna Beach, Volusia County","N",-80.9269984,29.0258191
"333","31-Aug-2011",2011,"USA","Crescent Beach St. Johns County","N",-81.2536786,29.76886
"334","28-Aug-2011",2011,"USA","Grass Island, Aransas County","N",-97.1538796,28.0514053
"335","24-Aug-2011",2011,"USA","Buxton Beach, Dare County","N",-75.5188022,35.2673601
"336","24-Aug-2011",2011,"USA","Holden Beach. Brunswick County","N",-78.3038892,33.9135061
"337","17-Aug-2011",2011,"USA","Kure Beach, New Hanover County","N",-77.9072081,33.9968399
"338","17-Aug-2011",2011,"USA","Wrightsville Beach, New Hanover County","N",-77.7963709,34.2085036
"339","16-Aug--2011",2011,"USA","Vieques","N",-65.4400985,18.1262854
"340","15-Aug-2011",2011,"USA","Myrtle Beach, Horry County","N",-78.8866943,33.6890603
"341","11-Aug--2011",2011,"USA","Beaufort Inlet","N",-76.6663185,34.6937732
"342","25-Jul-2011",2011,"USA","Egg Harbor, Atlantic County","N",-74.6166192,39.3822537
"343","19-Jul-2011",2011,"USA","Ocracoke Island, Hyde County","N",-75.9810097,35.1146152
"344","13-Jul-2011",2011,"USA","South Padre Island, Cameron County","N",-97.1681257,26.1118401
"345","07-Jul-2011",2011,"USA","Sunday Beach, Matagorda Island, Calhoun  County","N",-96.7386946,28.1688928
"346","07-Jul-2011",2011,"USA","Mustang Island, Nueces County","N",-97.1628647,27.7103944
"347","26-Jun-2008",2011,"USA","North Topsail Beach, Onslow County","N",-77.43163,34.4901665
"348","24-Jun-2011",2011,"USA","San Onofre State Beach, San Diego County","N",-117.5656012,33.3728077
"349","21-Jun-2011",2011,"USA","Perdido Key, Escambia County","N",-87.4273172,30.3035037
"350","12-Jun-2011",2011,"USA","Off Jupiter Inlet, Palm Beach County","N",-80.1056256,26.8891892
"351","06-Jun-2011",2011,"USA","La Jolla, San Diego County","N",-117.2712717,32.8328112
"352","06-Jun-2011",2011,"USA","New Smyrna Beach, Volusia County","N",-80.9269984,29.0258191
"353","30-May-2011",2011,"USA","Follett's Island, Brazoria County","N",-95.1696535,29.0424663
"354","25-May-2011",2011,"USA","Lyman Beach, Kailua-Kona","N",-155.9746984,19.6023724
"355","22-May-2011",2011,"USA","Lyman Beach, Kailua-Kona","N",-155.9746984,19.6023724
"356","13-May-2011",2011,"USA","Ponte Vedra Beach, St Johns County","N",-81.3852595,30.2400058
"357","13-May-2011",2011,"USA","Ormond Beach, Volusia County","N",-81.0558894,29.2858129
"358","10-May-2011",2011,"USA","Miami","N",-80.1917902,25.7616798
"359","26-Apr-2011",2011,"USA","Riviera Beach, Palm Beach County","N",-80.0580969,26.7753405
"360","22-Apr-2011",2011,"USA","New Smyrna Beach, Volusia County","N",-80.9269984,29.0258191
"361","Reported 29-Mar-2011",2011,"USA","Matagorda Beach","N",-95.9764096,28.597701
"362","26-Dec-2010",2010,"USA"," Kahului, Maui","N",-156.4729469,20.8893351
"363","11-Dec-2010",2010,"USA","Tavares Bay, Maui","N",-156.372637,20.922522
"364","19-Nov-2010",2010,"USA","","N",NA,NA
"365","28-Oct-2010",2010,"USA","florence, oregon","N",-124.0998409,43.9826214
"366","23-Oct-2010",2010,"USA","Burnt Cove near Eastport, Washington County","N",NA,NA
"367","22-Oct-2010",2010,"USA","Surf Beach, Vandenberg AFB, Santa Barbara County","Y",-120.6035029,34.6844268
"368","27-Sep-2010",2010,"USA","Winchester Bay","N",-124.1748369,43.6770608
"369","24-Sep-2010",2010,"USA","Sandridge Beach, Virginia Beach, Princess Anne County","N",-76.09115,36.7771461
"370","07-Sep-2010",2010,"USA","St. Augustine, St. John's County","N",-81.3124341,29.9012437
"371","04-Sep-2010",2010,"USA","New Smyrna Beach, Volusia County","N",-80.9269984,29.0258191
"372","03-Sep-2010",2010,"USA","New Smyrna Beach, Volusia County","N",-80.9269984,29.0258191
"373","03-Sep-2010",2010,"USA","New Smyrna Beach, Volusia County","N",-80.9269984,29.0258191
"374","18-Aug-2010",2010,"USA","Crescent Beach St. Johns County","N",-81.2536786,29.76886
"375","14-Aug-2010",2010,"USA","Pigeon Point, San Mateo County","N",-122.3928022,37.1829202
"376","07-Aug-2010",2010,"USA","Figure Eight Island, Wilmington, New Hanover County","N",-77.7488093,34.2708112
"377","05-Aug-2010",2010,"USA","Bethune Beach, Volusia County","N",-80.844768,28.941441
"378","02-Aug-2010",2010,"USA","Near oil rig Hondo, 5 nm from Gaviota, Santa Barbara County","N",NA,NA
"379","02-Aug-2010",2010,"USA","Micklers Landing, St. Johns County","N",-81.3573357,30.1615437
"380","25-Jul-2010",2010,"USA","Isle of Palms, Charleston County","N",-79.7343791,32.8194131
"381","23-Jul-2010",2010,"USA","Jacksonville Beach, Duval County","N",-81.3961338,30.2841224
"382","19-Jul-2010",2010,"USA","Myrtle Beach","N",-78.8866943,33.6890603
"383","17-Jul-2010",2010,"USA","Wrightsville Beach, New Hanover County","N",-77.7963709,34.2085036
"384","17-Jul-2010",2010,"USA","New Smyrna Beach","N",-80.9269984,29.0258191
"385","16-Jul-2010",2010,"USA","Galveston","N",-94.7976958,29.3013479
"386","11-Jul-2010",2010,"USA","Lauderdale-by-the-Sea, Broward County","N",-80.0964326,26.192028
"387","03-Jul-2010",2010,"USA","Off Long Island","N",-72.794474,40.858641
"388","02-Jul-2010",2010,"USA","Pismo Beach, San Luis  Obispo County","N",-120.6412827,35.1427533
"389","02-Jul-2010",2010,"USA","Dog Patch, San Onofre","N",-117.5656012,33.3728077
"390","27-Jun-2010",2010,"USA","Eight Mile Beach, Galveston","N",-94.8941273,29.2556198
"391","25-Jun-2010",2010,"USA","Fripp Island","N",-80.4966062,32.317001
"392","25-Jun-2010",2010,"USA","Topsail Island, Pender County","N",-77.5460805,34.4271121
"393","10-Jun-2010",2010,"USA","Jacksonville","N",-81.655651,30.3321838
"394","Jun-2010",2010,"USA","Ponte Vedra Beach, St Johns County","N",-81.3852595,30.2400058
"395","30-May-2010",2010,"USA","Off Tarpon Springs","N",-82.739375,28.138599
"396","01-May-2010",2010,"USA","New Smyrna Beach","N",-80.9269984,29.0258191
"397","28-Apr-2010",2010,"USA","Hanalei Bay","N",-159.5067583,22.2090776
"398","19-Apr-2010",2010,"USA","Hanalei Bay, Kauai","N",-159.5067583,22.2090776
"399","06-Feb-2010",2010,"USA","Riviera Beach","N",-80.0580969,26.7753405
"400","03-Feb-2010",2010,"USA","Stuart, Martin County","Y",-80.2528257,27.197548
"401","06-Jan-2010",2010,"USA","Elliot Key","N",-80.2000596,25.4396585
"402","05-Dec-2009",2009,"USA","Adventure Aquarium, Camden","N",-75.1312033,39.945942
"403","25-Nov-2009",2009,"USA","Huntington Beach, Orange County","N",-117.9988026,33.6594835
"404","24-Nov-2009",2009,"USA","Lori Wilson Park, Cocoa Beach, Brevard County","N",-80.6094697,28.3371371
"405","16-Nov-2009",2009,"USA","Loch Lomond, Marin County","N",-122.4838887,37.9732121
"406","16-Nov-2009",2009,"USA","Jupiter, Palm Beach County","N",-80.0942087,26.9342246
"407","13-Nov-2009",2009,"USA","Jupiter, Palm Beach County","N",-80.0942087,26.9342246
"408","11-Nov-2009",2009,"USA","New Smyrna Beach, Volusia County","N",-80.9269984,29.0258191
"409","05-Nov-2009",2009,"USA","Davenport, Santa Cruz County","N",-122.1966597,37.0135208
"410","24-Oct-2009",2009,"USA","San Onofre, San Diego County ","N",-117.5656012,33.3728077
"411","19-Oct-2009",2009,"USA","Kalama Park, Maui","N",-156.4532411,20.7320541
"412","09-Oct-2009",2009,"USA","San Onofre State Beach, San Diego County","N",-117.5656012,33.3728077
"413","26-Sep-2009",2009,"USA","Key Colony Beach, Monroe County","N",-81.0186827,24.7209744
"414","12-Sep-2009",2009,"USA","Corolla, Currituck County","Y",-75.8307777,36.3802879
"415","30-Aug-2009",2009,"USA","Huntington Beach, Orange County","N",-117.9988026,33.6594835
"416","25-Aug-2009",2009,"USA","Terramar Beach, Carlsbad, San Diego County","N",-117.332911,33.128549
"417","10-Aug-2009",2009,"USA","Ponce, Volusia County","N",-80.9369983,29.0963729
"418","06-Aug-2009",2009,"USA","kawa bay, hawaii","N",-155.5272222,19.1161111
"419","01-Aug-2009",2009,"USA","Curlew Island, Breton Sound","N",NA,NA
"420","24-Jul-2009",2009,"USA","South Padre Island","N",-97.1681257,26.1118401
"421","22-Jul-2009",2009,"USA","Holden Beach. Brunswick County","N",-78.3038892,33.9135061
"422","22-Jul-2009",2009,"USA","Intracoastal Waterway,      St. Petersburg","N",NA,NA
"423","11-Jul-2009",2009,"USA","San Onofre, San Diego County ","N",-117.5656012,33.3728077
"424","05-Jul-2009",2009,"USA","Daytona Beach, Volusia County","N",-81.0228331,29.2108147
"425","04-Jul-2009",2009,"USA","Biscayne National Park, Miami","N",-80.2083103,25.4824229
"426","21-Jun-2009",2009,"USA","Shell Beach, San Luis Obispo County","N",-120.672395,35.1552532
"427","16-Jun-2009",2009,"USA","Melbourne Beach, Brevard County","N",-80.5603303,28.0683496
"428","25-May-2009",2009,"USA","Clearwater Beach, Pinellas County","N",-82.8270846,27.9775301
"429","17-May-2009",2009,"USA","New Smyrna Beach, Volusia County","N",-80.9269984,29.0258191
"430","16-May-2009",2009,"USA","New Smyrna Beach, Volusia County","N",-80.9269984,29.0258191
"431","16-May-2009",2009,"USA","New Smyrna Beach, Volusia County","N",-80.9269984,29.0258191
"432","28-Apr-2009",2009,"USA","St. Augustine, St. John's County","N",-81.3124341,29.9012437
"433","Reported 25-Apr-2009",2009,"USA","San Onofre State Beach, San Diego County","N",-117.5656012,33.3728077
"434","21-Apr-2009",2009,"USA","New Smyrna Beach, Volusia County","N",-80.9269984,29.0258191
"435","19-Apr-2009",2009,"USA","Carlin Park, Jupiter Inlet","N",-80.0691932,26.9291055
"436","17-Apr-2009",2009,"USA","Walton Rocks, St Lucie County","N",-80.2334306,27.3378902
"437","11-Apr-2009",2009,"USA","Kona","N",-155.9969261,19.639994
"438","06-Apr-2009",2009,"USA","San Diego County","N",-117.1610966,32.7157305
"439","03-Apr-2009",2009,"USA","Sanibel Island, Lee County","N",-82.0223137,26.4489695
"440","18-Mar-2009",2009,"USA","Ponce Inlet, Volusia County","N",-80.9369983,29.0963729
"441","17-Mar-2009",2009,"USA","Alenuihaha Channel","N",-156.0416667,20.6333333
"442","08-Feb-2009",2009,"USA","Quebradillas","Y",-66.9342579,18.470959
"443","20-Dec-2008",2008,"USA","Dillon Beach, Marin County","N",-122.9652768,38.2507515
"444","08-Oct-2008",2008,"USA","Santa Rosa Beach, Walton County","N",-86.2288322,30.3960324
"445","28-Sep-2008",2008,"USA","New Smyrna Beach, Volusia County","N",-80.9269984,29.0258191
"446","28-Sep-2008",2008,"USA","Bethune Beach","N",-80.8389898,28.9508924
"447","14-Sep-2008",2008,"USA","Ormond-by-the-Sea, Volusia County","N",-81.0664455,29.3491449
"448","09-Sep-2008",2008,"USA","Ka'a'awa, Oahu","N",-157.8536111,21.5572221
"449","08-Sep-2008",2008,"USA","Surf Beach, Lompoc, Santa Barbara County","N",-120.6049955,34.6829861
"450","06-Sep-2008",2008,"USA","Ponce Inlet, New Smyrna Beach, Volusia County","N",-80.9280234,29.0806338
"451","06-Sep-2008",2008,"USA","Ponce Inlet, New Smyrna Beach, Volusia County","N",-80.9280234,29.0806338
"452","01-Sep-2008",2008,"USA","New Smyrna Beach, Volusia County","N",-80.9269984,29.0258191
"453","Sep-2008",2008,"USA","Hutchinson Island","N",-80.2488596,27.3545667
"454","30-Aug-2008",2008,"USA","McKenzie Beach Park in Pahoa, Hawai'i ","Y",-154.8651908,19.4372951
"455","28-Aug-2008",2008,"USA","New Smyrna Beach, Volusia County","N",-80.9269984,29.0258191
"456","27-Aug-2008",2008,"USA","New Smyrna Beach, Volusia County","N",-80.9269984,29.0258191
"457","24-Aug-2008",2008,"USA","New Smyrna Beach, Volusia County","N",-80.9269984,29.0258191
"458","24-Aug-2008",2008,"USA","Surf City, Topsail Island, Pender County","N",-77.5460805,34.4271121
"459","20-Aug-2008",2008,"USA","Sanibel Island, Lee County","N",-82.0223137,26.4489695
"460","18-Aug-2008",2008,"USA","North Myrtle Beach, Horry County","N",-78.680016,33.8160058
"461","16-Aug-2008",2008,"USA","Buck Island","N",-64.6206106,17.7870946
"462","12-Aug-2008",2008,"USA","New Smyrna Beach, Volusia County","N",-80.9269984,29.0258191
"463","11-Aug-2008",2008,"USA","Ala Moana Beach Park, Oah'u","N",-157.8484816,21.2900776
"464","26-Jul-2008",2008,"USA","Honokowai, Maui","N",-156.6808988,20.963681
"465","25-Jul-2008",2008,"USA","New Smyrna Beach, Volusia County","N",-80.9269984,29.0258191
"466","25-Jul-2008",2008,"USA","Lahilahi Point, Oahu","N",-158.2113408,21.4618181
"467","24-Jul-2008",2008,"USA","Surf City, Topsail Island, Pender County","N",-77.5460805,34.4271121
"468","24-Jul-2008",2008,"USA","Topsail Island, Pender County","N",-77.5460805,34.4271121
"469","23-Jul-2008",2008,"USA","New Smyrna Beach, Volusia County","N",-80.9269984,29.0258191
"470","19-Jul-2008",2008,"USA","New Smyrna Beach, Volusia County","N",-80.9269984,29.0258191
"471","13-Jul-2008",2008,"USA","Carolina Beach, New Hanover County","N",-77.8935966,34.0351726
"472","11-Jul-2008",2008,"USA","Isle of Palms, Charleston County","N",-79.7343791,32.8194131
"473","09-Jul-2008",2008,"USA","Emerald Isle, Carteret County","N",-76.9507762,34.6779399
"474","05-Jul-2008",2008,"USA","Litchfield Beach, Georgetown County","N",-79.0954041,33.4702201
"475","28-Jun-2008",2008,"USA","Kamilo Point, Hawai'i","Y",-155.5986111,18.9777777
"476","26-Jun-2008",2008,"USA","New Smyrna Beach, Volusia County","N",-80.9269984,29.0258191
"477","26-Jun-2008",2008,"USA","Isle of Palms, Charleston County","N",-79.7343791,32.8194131
"478","21-Jun-2008",2008,"USA","West Cove, Catalina Island","N",-118.4163103,33.3878856
"479","20-Jun-2008",2008,"USA","Fernandina Beach, Nassau County","N",-81.4625919,30.6696818
"480","07-Jun-2008",2008,"USA","Cocoa Beach, Brevard  County","N",-80.6075513,28.3200067
"481","01-Jun-2008",2008,"USA","Cherry Grove","N",-73.089218,40.6590648
"482","26-May-2008",2008,"USA","Hammocks Beach State Park, Bear Island, Onslow County","N",-77.1488396,34.6318297
"483","07-May-2008",2008,"USA","New Smyrna Beach, Volusia County","N",-80.9269984,29.0258191
"484","28-Apr-2008",2008,"USA","New Smyrna Beach, Volusia County","N",-80.9269984,29.0258191
"485","27-Apr-2008",2008,"USA","New Smyrna Beach, Volusia County","N",-80.9269984,29.0258191
"486","26-Apr-2008",2008,"USA","New Smyrna Beach, Volusia County","N",-80.9269984,29.0258191
"487","25-Apr-2008",2008,"USA","Solana Beach, San Diego County","Y",-117.2711481,32.991155
"488","20-Apr-2008",2008,"USA","New Smyrna Beach, Volusia County","N",-80.9269984,29.0258191
"489","15-Apr-2008",2008,"USA","Playalinda Beach, Canaveral National Seashore, Brevard County","N",-80.6318287,28.6555177
"490","28-Mar-2008",2008,"USA","Near Cocoa Beach, Brevard  County","N",-80.6075513,28.3200067
"491","Reported 08-Apr-2008",2008,"USA","1.4 miles south of Ponce de Leon Jetty, New Smyrna Beach, Volusia County","N",NA,NA
"492","03-Apr-2008",2008,"USA","South of Ponce de Leon Jetty, New Smyrna Beach, Volusia County","N",-80.9280234,29.0806338
"493","28-Mar-2008",2008,"USA","New Smyrna Beach / Ponce Inlet, Volusia County","N",-80.9298958,29.0835756
"494","25-Mar-2008",2008,"USA","Palm Beach Shores, Palm Beach County","N",-80.0355962,26.7781183
"495","23-Mar-2008",2008,"USA","South of Ponce de Leon Jetty, New Smyrna Beach, Volusia County","N",-80.9280234,29.0806338
"496","21-Mar-2008",2008,"USA","Beachway Avenue Approach, New Smyrna Beach, Volusia County","N",-80.9041836,29.0512968
"497","15-Mar-2008",2008,"USA","Lovers Key State Park, Bonita Springs, Lee County","N",-81.8710439,26.3912537
"498","07-Mar-2008",2008,"USA"," Huntington Beach, Orange County","N",-117.9988026,33.6594835
"499","15-Feb-2008",2008,"USA","Ponce Inlet, Volusia County","N",-80.9369983,29.0963729
"500","06-Feb-2008",2008,"USA","Opposite Patrick Air Force Base, Brevard County","N",NA,NA
"501","10-Jan-2008",2008,"USA","Playalinda Beach, Canaveral National Seashore, Brevard County","N",-80.6318287,28.6555177
"502","Fall 2008",2008,"USA","Off Fort Pierce, St. Lucie County","N",-80.4284259,27.3425602
"503","10-Dec-2007",2007,"USA","Waialua Bay, O'ahu","N",-158.1148221,21.5944262
"504","06-Nov-2007",2007,"USA","New Smyrna Beach, Volusia County","N",-80.9269984,29.0258191
"505","04-Nov-2007",2007,"USA","Round Island Park, Indian River County","N",-80.3236254,27.5615921
"506","29-Oct-2007",2007,"USA","Wailea, Maui","N",-156.4390541,20.6684769
"507","07-Oct-2007",2007,"USA","Venice Pier, Venice, Los Angeles County","N",-118.4686662,33.9780166
"508","06-Oct-2007",2007,"USA","Playalinda Beach, Canaveral National Seashore, Brevard County","N",-80.6318287,28.6555177
"509","30-Sep-2007",2007,"USA","Santa Monica, Los Angeles County","N",-118.4911912,34.0194543
"510","27-Sep-2007",2007,"USA","Moonstone Beach, Humboldt County","N",-124.11229,41.0301251
"511","22-Sep-2007",2007,"USA","Jupiter Inlet","Y",-80.0744458,26.9478705
"512","22-Sep-2007",2007,"USA","Huguenot Park","N",-81.420617,30.4109625
"513","20-Sep-2007",2007,"USA","New Smyrna Beach, Volusia County","N",-80.9269984,29.0258191
"514","16-Sep-2007",2007,"USA","New Smyrna Beach, Volusia County","N",-80.9269984,29.0258191
"515","16-Sep-2007",2007,"USA","Flagler Beach, Flagler County","N",-81.1270035,29.4749754
"516","13-Sep-2007",2007,"USA","Lauderdale-by-the-Sea, Broward County","N",-80.0964326,26.192028
"517","08-Sep-2007",2007,"USA","Pepper Park Beach, St. Lucie County","N",-80.3016525,27.498763
"518","05-Sep-2007",2007,"USA","Daytona Beach, Volusia County","N",-81.0228331,29.2108147
"519","04-Sep-2007",2007,"USA","Sullivan's Island","N",-79.8367511,32.7632323
"520","03-Sep-2007",2007,"USA","Daytona Beach, Volusia County","N",-81.0228331,29.2108147
"521","03-Sep-2007",2007,"USA","Fort Lauderdale, Broward County","N",-80.1373174,26.1224386
"522","28-Aug-2007",2007,"USA","Ka'a'awa, Oahu","N",-157.8536111,21.5572221
"523","28-Aug-2007",2007,"USA","Marina State Beach, Monterey County","N",-121.8092841,36.6927933
"524","26-Aug-2007",2007,"USA","New Smyrna Beach, Volusia County","N",-80.9269984,29.0258191
"525","25-Aug-2007",2007,"USA","New Smyrna Beach, Volusia County","N",-80.9269984,29.0258191
"526","22-Aug-2007",2007,"USA","North Carolina Aquarium at Fort Fisher","N",-75.7039834,35.9176536
"527","20-Aug-2007",2007,"USA","Indian River Inlet, Rehoboth Beach","N",-75.0716849,38.6128174
"528","19-Aug-2007",2007,"USA","Islamorada Founder's Park, Plantation Key, Monroe County","N",-80.5684062,24.9634826
"529","19-Aug-2007",2007,"USA","New Smyrna Beach, Volusia County","N",-80.9269984,29.0258191
"530","19-Aug-2007",2007,"USA","Lakewood Campground, Grand Strand, Horry County","N",-78.9555201,33.6334467
"531","15-Aug-2007",2007,"USA","Sarasota Bay","N",-82.5672727,27.3459665
"532","12-Aug-2007",2007,"USA","New Smyrna Beach, Volusia County","N",-80.9269984,29.0258191
"533","11-Aug-2007",2007,"USA","Ponce Inlet,  New Smyrna Beach, Volusia County","N",-80.9288957,29.0835745
"534","09-Aug-2007",2007,"USA","Isle of Palms, Charleston County","N",-79.7343791,32.8194131
"535","09-Aug-2007",2007,"USA","Isle of Palms, Charleston County","N",-79.7343791,32.8194131
"536","07-Aug-2007",2007,"USA","Islamorada, Monroe County","N",-80.6278364,24.9242943
"537","29-Jul-2007",2007,"USA","Ponce Inlet, Volusia County","N",-80.9369983,29.0963729
"538","28-Jul-2007",2007,"USA","Imperial Beach, San Diego County","N",-117.1130849,32.5839444
"539","22-Jul-2007",2007,"USA","Malibu, Los Angeles County","N",-118.7797571,34.0259216
"540","21-Jul-2007",2007,"USA","Bean Hollow State Beach, San Mateo County","N",-122.4109773,37.2273608
"541","19-Jul-2007.b",2007,"USA","Bellows Beach near Wailea Point, O’ahu","N",18.49041,-22.95764
"542","18-Jul-2007",2007,"USA","North Topsail Beach, Onslow  County","N",-77.43163,34.4901665
"543","17-Jul-2007",2007,"USA","Faria Beach, Ventura County","N",-119.3902494,34.3186521
"544","17-Jul-2007",2007,"USA","Atlantic Beach, Carteret County","N",-76.7402108,34.6990505
"545","05-Jul-2007",2007,"USA","Ponce Inlet, Volusia County","N",-80.9369983,29.0963729
"546","30-Jun-2007",2007,"USA","Marques Island","N",-139.0817124,-9.7812162
"547","30-Jun-2007",2007,"USA","Will Rogers State Beach, Los Angeles County","N",-118.541712,34.0375408
"548","25-Jun-2007",2007,"USA","New Smyrna Beach, Volusia County","N",-80.9269984,29.0258191
"549","24-Jun-2007",2007,"USA","Silva's Channel, Mokuleia, O'ahu","N",NA,NA
"550","17-Jun-2007",2007,"USA","Vilano Beach, St.  Johns County","N",-81.3020173,29.9385794
"551","12-Jun-2007",2007,"USA","Turtle Beach, Siesta Key, Sarasota County","N",-82.5138558,27.2166868
"552","26-May-2007",2007,"USA","Garden City","N",-73.6342954,40.7267682
"553","24-May-2007",2007,"USA","Virginia Aquarium & Marine Science Center, Virginia Beach ","N",-75.983721,36.820898
"554","10-May-2007",2007,"USA","New Smyrna Beach, Volusia County","N",-80.9269984,29.0258191
"555","07-May-2007",2007,"USA","Keawakapu Beach, Maui","N",-156.4464766,20.703966
"556","07-May-2007",2007,"USA","Naples, florida","N",-81.7948103,26.1420358
"557","22-Apr-2007",2007,"USA","Hutchinson Island, St. Lucie County","N",-80.2488596,27.3545667
"558","20-Apr-2007",2007,"USA","New Smyrna Beach, Volusia County","N",-80.9269984,29.0258191
"559","Reported      13-Apr-2007",2007,"USA","Florida Keys, Florida, Monroe County","N",-99.7973918,36.0095232
"560","01-Apr-2007",2007,"USA","New Smyrna Beach, Volusia County","N",-80.9269984,29.0258191
"561","31-Mar-2007",2007,"USA","Normandy Beach, Hutchinson Island,  St. Lucie County","N",-80.220676,27.3073672
"562","31-Mar-2007",2007,"USA","Waveland Beach, Hutchinson Island, St. Lucie County","N",-80.20625,27.275367
"563","21-Mar-2007",2007,"USA","Jupiter Inlet","N",-80.0744458,26.9478705
"564","Reported 14-Mar-2007",2007,"USA","Delray Beach","N",-80.0728201,26.4614625
"565","11-Mar-2007",2007,"USA","Tiger Shores Beach, Martin County","N",-80.1790801,27.2210598
"566","25-Jan-2007",2007,"USA","100 miles off Ft. Myers Beach","N",-81.8111732,26.5994528
"567","07-Jan-2007",2007,"USA","Smith Point, Long Island","N",-72.8716278,40.7421675
"568","01-Jan-2007",2007,"USA","Majors Bay, Kaua'i","N",-159.776978,22.0095692
"569","10-Dec-2006",2006,"USA","Dillon Beach, Marin County","N",-122.9652768,38.2507515
"570","11-Nov-2006",2006,"USA","Kihei, Maui","N",-156.4450063,20.7644275
"571","31-Oct-2006",2006,"USA","Siletz River mouth, Lincoln County","N",-123.8725635,44.8239091
"572","16-Oct-2006",2006,"USA","Sebastian Inlet","N",-80.44795,27.85221
"573","10-Oct-2006",2006,"USA","Daytona Beach, Volusia County","N",-81.0228331,29.2108147
"574","07-Oct-2006",2006,"USA","Isla Blanca Park, South Padre Island","N",-97.1628362,26.0753323
"575","05-Oct-2006",2006,"USA","New Smyrna Beach, Volusia County","N",-80.9269984,29.0258191
"576","29-Sep-2006",2006,"USA","New Smyrna Beach, Volusia County","N",-80.9269984,29.0258191
"577","Reported 18-Sep-2006",2006,"USA","Off Key Largo, Monroe County","N",-80.4330629,25.1004812
"578","16-Sep-2006",2006,"USA","Onslow Beach","N",-77.2685663,34.570442
"579","14-Sep-2006",2006,"USA","Singer Island, Riviera Beach","N",-80.0375408,26.7850625
"580","11-Sep-2006",2006,"USA","New Smyrna Beach, Volusia County","N",-80.9269984,29.0258191
"581","03-Sep-2006",2006,"USA","New Smyrna Beach, Volusia County","N",-80.9269984,29.0258191
"582","02-Sep-2006",2006,"USA","New Smyrna Beach, Volusia County","N",-80.9269984,29.0258191
"583","29-Aug-2006",2006,"USA","Florence, Lane County","N",-124.0998409,43.9826214
"584","Aug-2006",2006,"USA","Masonboro Island, New Hanover County","N",-77.8510213,34.1329044
"585","31-Jul-2006",2006,"USA","Newport Beach, Orange County","N",-117.9298493,33.6188829
"586","31-Jul-2006",2006,"USA","Oswald State Park","N",-123.9590931,45.769811
"587","29-Jul-2006",2006,"USA","Broad Beach, Malibu, Los Angeles County","N",-118.8559846,34.0356525
"588","29-Jul-2006",2006,"USA","Playalinda Beach, Canaveral National Seashore, Brevard County","N",-80.6318287,28.6555177
"589","25-Jul-2006",2006,"USA","New Smyrna Beach, Volusia County","N",-80.9269984,29.0258191
"590","23-Jul-2006",2006,"USA","Sargent Beach, Matagorda County","N",-95.977371,28.601027
"591","17-Jul-2006",2006,"USA","Singleton Beach, Hilton Head Island, Beaufort County","N",-80.7030919,32.1910259
"592","12-Jul-2006",2006,"USA","Kiawah Island, Charleston County","N",-80.0848166,32.6082373
"593","09-Jul-2006",2006,"USA","New Smyrna Beach, Volusia County","N",-80.9269984,29.0258191
"594","09-Jul-2006.",2006,"USA","Ponte Vedra Beach, St Johns County","N",-81.3852595,30.2400058
"595","08-Jul-2006",2006,"USA","Debordieu Beach, Georgetown County","N",-79.1517111,33.3690565
"596","08-Jul-2006",2006,"USA","Playalinda Beach, Canaveral National Seashore, Brevard County","N",-80.6318287,28.6555177
"597","July 2006",2006,"USA","Florida Keys, Florida, Monroe County","N",-99.7973918,36.0095232
"598","July 2006",2006,"USA","Florida Keys, Florida, Monroe County","N",-99.7973918,36.0095232
"599","27-Jun-2006",2006,"USA","Hutchinson Island, St. Lucie County","N",-80.2488596,27.3545667
"600","26-Jun-2006",2006,"USA","Fort Myers","N",-81.8723084,26.640628
"601","20-Jun-2006",2006,"USA","New Smyrna Beach, Volusia County","N",-80.9269984,29.0258191
"602","17-Jun-2006",2006,"USA","Monterey, Monterey County","N",-121.8946761,36.6002378
"603","15-Jun-2006",2006,"USA","New Smyrna Beach, Volusia County","N",-80.9269984,29.0258191
"604","07-Jun-2006",2006,"USA","Coligny Beach, Hilton Head, Beaufort County","N",-80.7510645,32.1414846
"605","31-May-2006",2006,"USA","O'ahu","N",-158.0000565,21.4389123
"606","28-May-2006",2006,"USA","French Frigate Shoals","N",-166.146111,23.748889
"607","27-May-2006",2006,"USA","North Shore, O'ahu","N",-158.1047121,21.5816374
"608","24-May-2006",2006,"USA","Lanai","N",-156.9273193,20.8165975
"609","19-May-2006",2006,"USA","Gun Beach","N",144.8033577,13.5243048
"610","05-May-2006",2006,"USA","Cocoa Beach, Brevard  County","N",-80.6075513,28.3200067
"611","04-May-2006",2006,"USA","Hutchinson Island, St. Lucie County","N",-80.2488596,27.3545667
"612","Reported      23-Apr-2006",2006,"USA","Alligator Reef off Islamorada, Monroe County","Y",-80.6188171,24.8517748
"613","21-Apr-2006",2006,"USA","Sebastian Inlet, Brevard County","N",-80.4472737,27.860302
"614","19-Apr-2006",2006,"USA","Daytona Beach, Volusia County","N",-81.0228331,29.2108147
"615","13-Apr-2006",2006,"USA","Port of the Islands, Collier County","N",-81.511112,25.955305
"616","03-Apr-2006",2006,"USA","Marco Island, Collier County","N",-81.7075355,25.9397412
"617","23-Mar-2006",2006,"USA","Leftovers, near Waimea Bay, O'ahu","N",NA,NA
"618","27-Feb-2006",2006,"USA","Makena, Maui","N",-156.4425,20.6544444
"619","23-Feb-2006",2006,"USA","Makena, Maui","Y",-156.4425,20.6544444
"620","01-Feb-2006",2006,"USA","Off Pu'u Ola'l, Makena, Maui","N",NA,NA
"621","18-Jan-2006",2006,"USA","Santa Cruz, Santa Cruz County","N",-122.0307963,36.9741171
"622","04-Jan-2006",2006,"USA","Round Island Park, Indian River County","N",-80.3236254,27.5615921
"623","24-Dec-2005",2005,"USA","Tillamook Head, Clatsop County","N",-123.9568056,45.9414964
"624","21-Dec-2005",2005,"USA","Keawakapu Beach, Maui","N",-156.4464766,20.703966
"625","Reported 29-Nov-2005",2005,"USA","Cape San Blas, Gulf County","N",-85.3524776,29.6675478
"626","27-Nov-2005",2005,"USA","Ponce Inlet, New Smyrna Beach, Volusia County","N",-80.9280234,29.0806338
"627","21-Nov-2005",2005,"USA","Jensen Beach, Martin County ","N",-80.2297697,27.2544906
"628","20-Nov-2005",2005,"USA","New Smyrna  Beach, Volusia County","N",-80.9269984,29.0258191
"629","12-Nov-2005",2005,"USA","New Smyrna  Beach, Volusia County","N",-80.9269984,29.0258191
"630","02-Nov-2005",2005,"USA","Mavericks, Half Moon Bay, San Mateo County","N",-122.496687,37.4955696
"631","02-Nov-2005",2005,"USA","Ocean Beach, San Francisco, San Francisco County","N",-122.510734,37.7593921
"632","29-Oct-2005",2005,"USA","Ponce de Leon Inlet, Volusia County ","N",-80.9220608,29.070584
"633","21-Oct-2005",2005,"USA","Klamath River mouth, Del Norte County","N",-124.0313032,41.8765281
"634","19-Oct-2005",2005,"USA","Salmon Beach, Sonoma County","N",-123.0685179,38.359293
"635","15-Oct-2005",2005,"USA","Ponce Inlet, Volusia County","N",-80.9369983,29.0963729
"636","13-Oct-2005",2005,"USA","Honokowai, Maui","N",-156.6808988,20.963681
"637","06-Oct-2005",2005,"USA","Ponce Inlet, Volusia County","N",-80.9369983,29.0963729
"638","22-Sep-2005",2005,"USA","Tigertail Beach, Collier County","N",-81.7427834,25.9490043
"639","20-Sep-2005",2005,"USA","Myrtle Beach, Horry County","N",-78.8866943,33.6890603
"640","11-Sep-2005",2005,"USA","Folly Beach","Y",-79.9403673,32.6551798
"641","05-Sep-2005",2005,"USA","North Topsail Beach, Onslow County","N",-77.43163,34.4901665
"642","02-Sep-2005",2005,"USA","Ponce Inlet, Volusia County","N",-80.9369983,29.0963729
"643","24-Aug-2005",2005,"USA","Scripps, LaJolla, San Diego County","N",-117.2254782,32.8849805
"644","22-Aug-2005",2005,"USA","6th Avenue North, Myrtle Beach, Horry County","N",-78.8857802,33.6908575
"645","21-Aug-2005",2005,"USA","34th Avenue North, Myrtle Beach, Horry County","N",-78.8598226,33.7126445
"646","19-Aug-2005",2005,"USA","Crystal Beach (east of Galveston)","N",-94.6366813,29.4541916
"647","12-Aug-2005",2005,"USA","Carolina Beach off Texas Avenue, New Hanover County","N",NA,NA
"648","6-Aug-2005",2005,"USA","Isle of Palms, Charleston County","N",-79.7343791,32.8194131
"649","27-Jul-2005",2005,"USA","Off Zelda Boulevard, Daytona Beach, Volusia Countyy","N",NA,NA
"650","23-Jul-2005",2005,"USA","Ormond Beach, Volusia County","N",-81.0558894,29.2858129
"651","22-Jul-2005",2005,"USA","Quarter mile south of Ponce de Leon Inlet, Volusia County","N",NA,NA
"652","15-Jul-2005",2005,"USA","Holden Beach, Brunswick County","N",-78.3038892,33.9135061
"653","13-Jul-2005",2005,"USA","Port Bolivar, Galveston County","N",-94.7643623,29.3807901
"654","1-Jul-2005",2005,"USA","Boca Grande, Lee County","N",-82.2616717,26.7490152
"655","27-Jun-2005",2005,"USA","Cape San Blas, Gulf County","N",-85.3524776,29.6675478
"656","25-Jun-2005",2005,"USA","Destin, Walton County","Y",-86.4957833,30.3935337
"657","18-Jun-2005",2005,"USA","Maui","N",-156.3319253,20.7983626
"658","16-Jun-2005",2005,"USA","Howard E. Futch Memorial Park at Paradise Beach, Brevard County","N",-80.5760479,28.1219819
"659","07-Jun-2005",2005,"USA","Kiawah Island, Charleston County","N",-80.0848166,32.6082373
"660","05-Jun-2005",2005,"USA","Surf City, Long Beach Island, Ocean County","N",-74.1651377,39.6620638
"661","02-Jun-2005",2005,"USA","Mustang Island, Corpus Christi","N",-97.1828804,27.6722157
"662","28-May-2005",2005,"USA","Daytona Beach Shores","N",-80.9828323,29.1760933
"663","27-May-2005",2005,"USA","Sand Key Beach, Clearwater, Pinellas County","N",-82.8276861,27.9593928
"664","14-May-2005",2005,"USA","North Kihei, Maui","N",-156.4450063,20.7644275
"665","02-May-2005",2005,"USA","Off Sullivans Island","N",-79.8353995,32.7600735
"666","02-May-2005",2005,"USA","Noreiga's, Maui","N",-156.3319253,20.7983626
"667","13-Apr-2005",2005,"USA","Crescent Beach, Sarasota County","N",-82.5403756,27.2556046
"668","09-Apr-2005",2005,"USA","Central Gulf Coast, St. John County","N",-81.3367614,29.9407753
"669","07-Apr-2005",2005,"USA","Isla Blanca Park, South Padre Island, Cameron County","N",-97.1628362,26.0753323
"670","06-Apr-2005",2005,"USA","Jacksonville Beach, Duval County","N",-81.3961338,30.2841224
"671","12-Mar-2005",2005,"USA","Albuquerue Aquarium, Albuquerue","N",-106.6790579,35.0930642
"672","22-Feb-2005",2005,"USA","Long Key, Monroe County","N",-80.8156324,24.8171576
"673","16-Feb-2005",2005,"USA","Rocky Point, north shore of O'ahu","N",-158.0000565,21.4389123
"674","13-Feb-2005",2005,"USA","Fort Lauderdale","N",-80.1373174,26.1224386
"675","11-Nov-2004",2004,"USA","Bunkers, Humboldt Bay, Eureka, Humboldt County","N",NA,NA
"676","10-Oct-2004",2004,"USA","Limantour Beach, Point Reyes National Seashore","N",-122.8941424,38.0271941
"677","09-Oct-2004",2004,"USA","Moloka'i","N",-157.0226297,21.1443935
"678","02-Oct-2004",2004,"USA","Pismo Beach, San Luis Obispo County","N",-120.6412827,35.1427533
"679","01-Oct-2004",2004,"USA","Lifeguard Tower 16, Huntington Beach, Orange County","N",-118.0487973,33.6955698
"680","20-Sep-2004",2004,"USA","Gold  Beach","N",-124.421774,42.4073334
"681","10-Sep-2004",2004,"USA","South Padre Island","N",-97.1681257,26.1118401
"682","04-Sep-2004",2004,"USA","North of Apache Pier, Myrtle Beach, Horry County","N",-78.7810199,33.7628505
"683","29-Aug-2004",2004,"USA","New Smyrna Beach / Cape Canaveral  National Seashore, Brevard County","N",-80.7563754,28.789536
"684","20-Aug-2004",2004,"USA","204s, San Clemente, Orange County","N",-117.6413933,33.440692
"685","15-Aug-2004",2004,"USA","Kibesillah, Mendocino County","Y",-123.77667,39.59028
"686","06-Aug-2004",2004,"USA","Big Bayou, St. Petersburg, Pinellas County ","N",-82.6341636,27.7412923
"687","31-Jul-2004",2004,"USA","Cocoa  Beach, Brevard County","N",-80.6075513,28.3200067
"688","28-Jul-2004",2004,"USA","Rodanthe, Dare County","N",-75.4655882,35.600383
"689","27-Jul-2004",2004,"USA","Carolina Beach, New Hanover County","N",-77.8935966,34.0351726
"690","27-Jul-2004",2004,"USA","Galveston Island","N",-94.9091329,29.241005
"691","25-Jul-2004",2004,"USA","Bryan Beach, Brazoria County","N",-95.3785523,28.8833061
"692","02-Jul-2004",2004,"USA","Gulf Shores Beach, Baldwin County","N",-87.6905563,30.2474327
"693","26-Jun-2004",2004,"USA","San Onofre State Beach, San Diego County","N",-117.5656012,33.3728077
"694","14-Jun-2004",2004,"USA","Disney / Vero Beach, Indian River County","N",-80.3967349,27.7615664
"695","10-Jun-2004",2004,"USA","Daytona Beach Shores, Volusia County","N",-80.9828323,29.1760933
"696","29-May-2004",2004,"USA","Pirate's Beach, Galveston Island","N",-94.9365782,29.2047732
"697","28-May-2004",2004,"USA","Salmon Creek, Sonoma County","N",-123.0622242,38.350472
"698","23-May-2004",2004,"USA","St. Augustine, St. John's County","N",-81.3124341,29.9012437
"699","22-May-2004",2004,"USA","St. Augustine  St. Johns County","N",-81.3124341,29.9012437
"700","22-May-2004",2004,"USA","Jacksonville Beach, Duval County","N",-81.3961338,30.2841224
"701","04-May-2004",2004,"USA","Channel between South Padre Island & Padre Island National Seashore","N",-97.2991836,27.4241558
"702","07-Apr-2004",2004,"USA","Kahana Beach, Maui","Y",-156.6801284,20.9692582
"703","04-Apr-2004",2004,"USA","Velzyland","Y",-158.0313241,21.6846128
"704","31-Mar-2004",2004,"USA","Ocean Reef Park, Singer Island, Palm Beach County","N",-80.0328831,26.7937693
"705","31-Mar-2004",2004,"USA","Stuart Rocks, Martin County","N",-80.2237488,27.195541
"706","28-Mar-2004",2004,"USA","Pelican Beach Park, Satellite Beach, Brevard County","N",-80.5877597,28.1673007
"707","27-Mar-2004",2004,"USA","Sanibel Island, Lee County","N",-82.0223137,26.4489695
"708","14-Mar-2004",2004,"USA","Punaluu","N",-157.8912373,21.5907601
"709","16-Mar-2004",2004,"USA","Kalihiwai Beach, Kauai","N",-159.4267182,22.2165141
"710","26-Dec-2003",2003,"USA","Miami, Dade County","N",-80.6326916,25.5516034
"711","13-Dec-2003",2003,"USA","Melbourne Beach, Brevard County","N",-80.5603303,28.0683496
"712","22-Nov-2003",2003,"USA","Daytona Beach, Volusia County","N",-81.0228331,29.2108147
"713","12-Nov-2003",2003,"USA","South Jetty, New Smyrna Beach, Volusia County","N",-80.914393,29.06906
"714","31-Oct-2003",2003,"USA","Ponte Vedra Beach, St. Johns County","N",-81.3852595,30.2400058
"715","31-Oct-2003",2003,"USA","Tunnels surf break off Makua Beach, Kaua'i","N",-159.5609436,22.2237989
"716","27-Oct-2003",2003,"USA","New Smyrna Beach, Volusia County","N",-80.9269984,29.0258191
"717","24-Oct-2003",2003,"USA","Honolua Bay","N",-156.6383817,21.0139323
"718","14-Oct-2003",2003,"USA","Near Patrick Air Force Base Brevard County","N",-80.6075172,28.2394645
"719","06-Oct-2003",2003,"USA","Palm Beach?","Y",-80.0364297,26.7056206
"720","05-Oct-2003",2003,"USA","Ocean Reef Park, Singer Island, Palm Beach County","N",-80.0328831,26.7937693
"721","05-Oct-2003",2003,"USA","Stuart Park Beach, Martin County","N",-80.2237488,27.195541
"722","05-Oct-2003",2003,"USA","South Jetty, New Smyrna Beach, Volusia County","N",-80.914393,29.06906
"723","05-Oct-2003",2003,"USA","Crawford Road beach approach at New Smyrna Beach, Volusia County","N",NA,NA
"724","05-Oct-2003",2003,"USA","Cove Beach / Kalama Beach, Kihei, Maui","N",-156.4498665,20.7276374
"725","28-Sep-2003",2003,"USA","North Hutchinson Island, St. Lucie Couny","N",-80.363081,27.6503152
"726","21-Sep-2003",2003,"USA","Ponce Inlet, New Smyrna Beach, Volusia County","N",-80.9280234,29.0806338
"727","19-Sep-2003",2003,"USA","Ponce Inlet, New Smyrna Beach, Volusia County","N",-80.9280234,29.0806338
"728","17-Sep-2003",2003,"USA","New Smyrna Beach, Volusia County","N",-80.9269984,29.0258191
"729","14-Sep-2003",2003,"USA","New Smyrna Beach, Volusia County","N",-80.9269984,29.0258191
"730","14-Sep-2003",2003,"USA","Bathtub Reef Beach, Martin County","N",-80.160359,27.1863376
"731","13-Sep-2003",2003,"USA","Daytona Beach, Volusia County ","N",-81.0228331,29.2108147
"732","13-Sep-2003",2003,"USA","Isle of Palms, Charleston County","N",-79.7343791,32.8194131
"733","Sep-2003",2003,"USA","Boca Grande, Lee County","N",-82.2616717,26.7490152
"734","29-Aug-2003",2003,"USA","1.5 miles off Surfside","N",-70.376838,43.522504
"735","19-Aug-2003",2003,"USA","Avila Beach, San Luis Obispo County","Y",-120.7319127,35.1800113
"736","12-Aug-2003",2003,"USA","Venice Beach, Los Angeles County","N",-118.4694832,33.9850469
"737","20-Jul-2003",2003,"USA","Ponce Inlet, New Smyrna Beach, Volusia County","N",-80.9280234,29.0806338
"738","15-Jul-2003",2003,"USA","Daytona Beach, Volusia County","N",-81.0228331,29.2108147
"739","05-Jul-2003",2003,"USA","Near New Smyrna Jetty, Volusia County","N",-80.914393,29.06906
"740","05-Jul-2003",2003,"USA","Canova Beach, Brevard County","N",-80.5802544,28.13866
"741","Jul-2003",2003,"USA","Fort Lauderdale, Broward County","N",-80.1373174,26.1224386
"742","30-Jun-2003",2003,"USA","New Smyrna Beach, Volusia County","N",-80.9269984,29.0258191
"743","26-Jun-2003",2003,"USA","St Augustine Beach. St. Johns County","N",-81.2711546,29.8439828
"744","24-Jun-2003",2003,"USA","Cocoa Beach, Brevard County","N",-80.6075513,28.3200067
"745","24-Jun-2003",2003,"USA","Makua Beach, Oahu","N",-158.2294045,21.5319042
"746","22-Jun-2003",2003,"USA","","N",NA,NA
"747","19-Jun-2003",2003,"USA","Masonboro Island, New Hanover County","N",-77.8510213,34.1329044
"748","08-Jun-2003",2003,"USA","Ponce Inlet, Volusia County","N",-80.9369983,29.0963729
"749","Jun-2003",2003,"USA","Pawleys Island, Georgetown County","N",-79.1214313,33.4332236
"750","25-May-2003",2003,"USA","Coral Cove Park, Jupiter Inlet, Palm Beach County","N",-80.0788305,26.9634451
"751","14-May-2003",2003,"USA","Ponce de Leon Inlet, Volusia County ","N",-80.9220608,29.070584
"752","10-May-2003",2003,"USA","Between Magic Sands Beach and Kahaluu Beach on the Kona coast","N",-155.9747222,19.5977778
"753","07-May-2003",2003,"USA","New Smyrna Beach, Volusia County","N",-80.9269984,29.0258191
"754","03-May-2003",2003,"USA","Daytona Beach Shores, Volusia County","N",-80.9828323,29.1760933
"755","21-Apr-2003",2003,"USA","Melbourne Beach, Brevard County ","N",-80.5603303,28.0683496
"756","21-Apr-2003",2003,"USA","Shepard Park, Cocoa Beach, Brevard County ","N",-80.6053107,28.3579479
"757","20-Apr-2003",2003,"USA","Playalinda Beach, Brevard County","N",-80.6318287,28.6555177
"758","20-Apr-2003",2003,"USA","Sunglow Pier, Daytona Beach Shores, Volusia County","N",-80.9643709,29.1466728
"759","20-Apr-2003",2003,"USA","New Smyrna Beach, Volusia County","N",-80.9269984,29.0258191
"760","19-Apr-2003",2003,"USA","New Smyrna Beach, Volusia County  ","N",-80.9269984,29.0258191
"761","18-Apr-2003",2003,"USA","North Beach, Patrick AFB, Brevard County","N",-80.6035962,28.2330457
"762","15-Apr-2003",2003,"USA","Cocoa Beach, Brevard County","N",-80.6075513,28.3200067
"763","09-Apr-2003",2003,"USA","Melbourne Beach, Brevard County","N",-80.5603303,28.0683496
"764","04-Apr-2003",2003,"USA","New Smyrna Beach, Volusia County","N",-80.9269984,29.0258191
"765","10-Mar-2003",2003,"USA","Petting Tank, Florida Aquarium, Tampa, Hillsborough County","N",-82.4450785,27.9439995
"766","15-Feb-2003",2003,"USA","Jupiter, Palm Beach County","N",-80.0942087,26.9342246
"767","28-Nov-2002",2002,"USA","Salmon Creek, Sonoma County","N",-123.0622242,38.350472
"768","17-Nov-2002",2002,"USA","Ka'anapali","N",-156.6831418,20.9331214
"769","11-Nov-2002",2002,"USA","Ponce Inlet, New Smyrna Beach, Volusia County","N",-80.9280234,29.0806338
"770","02-Nov-2002",2002,"USA","New Smyrna Beach, Volusia County","N",-80.9269984,29.0258191
"771","30-Oct-2002",2002,"USA","Kama'ole Beach Park I, Kihei, Maui","N",-156.4466804,20.7162466
"772","11-Oct-2002",2002,"USA","Opposite main gate at Patrick Air Force Base, Cape Canaveral, Brevard County","N",-80.5728241,28.4886723
"773","05-Oct-2002",2002,"USA","New Smyrna Beach, Volusia County","N",-80.9269984,29.0258191
"774","05-Oct-2002",2002,"USA","New Smyrna Beach, Volusia County","N",-80.9269984,29.0258191
"775","03-Oct-2002",2002,"USA","New Smyrna Beach, Volusia County","N",-80.9269984,29.0258191
"776","30-Sep-2002",2002,"USA","Ormond Beach, Volusia County","N",-81.0558894,29.2858129
"777","29-Sep-2002",2002,"USA","Sebastian Inlet, Brevard County","N",-80.4472737,27.860302
"778","27-Sep-2002",2002,"USA","Kahala, O'ahu","N",-157.7864379,21.2697044
"779","27-Sep-2002",2002,"USA","Key Largo, Monroe County","N",-80.4472802,25.0865151
"780","21-Sep-2002",2002,"USA","Cape Kiwanda","N",-123.9753912,45.219065
"781","21-Sep-2002",2002,"USA","Moonstone Beach, Humboldt County","N",-124.11229,41.0301251
"782","16-Sep-2002",2002,"USA","Hideaways Beach, Princeville, Kaua'i","N",-159.4958414,22.22329
"783","09-Sep-2002",2002,"USA","Ponce Inlet, New Smyrna Beach, Volusia County","N",-80.9280234,29.0806338
"784","05-Sep-2002",2002,"USA","Daytona Beach Shores, Volusia County","N",-80.9828323,29.1760933
"785","28-Aug-2002",2002,"USA","Kewalo Basin Channel, O'ahu","N",-157.8602778,21.2961111
"786","17-Aug-2002",2002,"USA","Gulf of Mexico, 65 miles offshore from Mobile","N",NA,NA
"787","14-Aug-2002",2002,"USA","New Smyrna Beach, Volusia County","N",-80.9269984,29.0258191
"788","11-Aug-2002",2002,"USA","Vero Beach, Indian River County","N",-80.3972736,27.6386434
"789","07-Aug-2002",2002,"USA","Ponce De Leon Inlet, Volusia County","N",-80.9220608,29.070584
"790","05-Aug-2002",2002,"USA","Topsail Beach, Pender County","N",-77.6305293,34.3651685
"791","26-Jul-2002",2002,"USA","Myrtle Beach, Horry County","N",-78.8866943,33.6890603
"792","20-Jul-2002",2002,"USA","Emerald Isle, Carteret County","N",-76.9507762,34.6779399
"793","10-Jul-2002",2002,"USA","Ponce Inlet, New Smyrna Beach, Volusia County","N",-80.9280234,29.0806338
"794","09-Jul-2002",2002,"USA","100 miles off Ocean City, Maryland, in 7000' of water","Y",NA,NA
"795","04-Jul-2002",2002,"USA","Wrightsville Beach, New Hanover County","N",-77.7963709,34.2085036
"796","20-Jun-2002",2002,"USA","New Smyrna Beach, Volusia County","N",-80.9269984,29.0258191
"797","11-Jun-2002",2002,"USA","Anini Beach, Kaua'i","N",-159.4629983,22.2232101
"798","10-Jun-2002",2002,"USA","St Augustine Beach, St Johns County","N",-81.2711546,29.8439828
"799","09-Jun-2002",2002,"USA","South of Ponce Inlet, New Smyrna Beach, Volusia County","N",-80.952136,29.0601745
"800","09-Jun-2002",2002,"USA","Jensen Beach, Martin County ","N",-80.2297697,27.2544906
"801","31-May-2002",2002,"USA","Stinson Beach, Marin County","N",-122.6444263,37.9004816
"802","31-May-2002",2002,"USA","St. George Island (near Apachicola), Franklin County","N",-84.9832435,29.7257675
"803","22-May-2002",2002,"USA","a pier at the end of Caxambas Drive, Marco Island ","N",-81.718221,25.9126289
"804","22-May-2002",2002,"USA","Atlantic Avenue, Palm Beach County","N",-80.037972,26.723478
"805","13-May-2002",2002,"USA","Ten Thousand Islands National Wildlife Refuge, Collier County","N",-81.5431872,25.8362346
"806","20-Apr-2002",2002,"USA","St. Augustine Beach, St. Johns County","N",-81.2711546,29.8439828
"807","18-Apr-2002",2002,"USA","New Smyrna Beach, Volusia County","N",-80.9269984,29.0258191
"808","02-Apr-2002",2002,"USA","New Smyrna Beach, Volusia County","N",-80.9269984,29.0258191
"809","01-Apr-2002",2002,"USA","Lauderdale-By-The-Sea, Broward County","N",-80.0964326,26.192028
"810","25-Mar-2002",2002,"USA","Brenecke Beach, Po'ipu, Kaua'i","N",-159.4534656,21.8738933
"811","25-Mar-2002",2002,"USA","Cocoa Beach, Brevard County","N",-80.6075513,28.3200067
"812","19-Mar-2002",2002,"USA","Daytona Beach Shores, Volusia County","N",-80.9828323,29.1760933
"813","15-Mar-2002",2002,"USA","Deerfield Beach (near Boca Raton), Broward County","N",-80.1332865,26.3187483
"814","15-Mar-2002",2002,"USA","New Smyrna Beach, Volusia County","N",-80.9269984,29.0258191
"815","01-Jan-2002",2002,"USA","Olowalu, Maui","N",-156.625,20.8147221
"816","14-Nov-2001",2001,"USA","Kapalua, Maui","N",-156.6580556,20.9997222
"817","24-Sep-2001",2001,"USA","Ponce Inlet, Volusia County","N",-80.9369983,29.0963729
"818","18-Sep-2001",2001,"USA","New Smyrna Beach, Volusia County","N",-80.9269984,29.0258191
"819","16-Sep-2001",2001,"USA","2 miles off Pompano Beach, Broward County","Y",-80.1256389,26.2149997
"820","15-Sep-2001",2001,"USA","A quarter mile north of Fort Pierce Inlet","N",-80.3016686,27.4820331
"821","15-Sep-2001",2001,"USA","North Topsail Beach, Onslow County","N",-77.43163,34.4901665
"822","08-Sep-2001",2001,"USA","Everglades National Park, Monroe County","N",-80.8986509,25.2866155
"823","07-Sep-2001",2001,"USA","Key Biscayne, Dade County","N",-80.1628248,25.693713
"824","07-Sep-2001",2001,"USA","Waites Island, Horry County","N",-78.5747337,33.8487836
"825","03-Sep-2001",2001,"USA","Avon, Hatteras Island, Outer Banks, Dare County","Y",-75.5108445,35.3521855
"826","03-Sep-2001",2001,"USA","Avon, Hatteras Island, Outer Banks, Dare County","N",-75.5108445,35.3521855
"827","02-Sep-2001",2001,"USA","Mayport Naval Station, Jacksonville, Duval Country","N",-81.4082704,30.3881464
"828","01-Sep-2001",2001,"USA","Sandbridge Beach, Princess Anne County","Y",-76.09115,36.7771461
"829","29-Aug-2001",2001,"USA","Coquina Beach, Anna Maria Island, Manatee County","N",-82.6924095,27.4513185
"830","27-Aug-2001",2001,"USA","New Smyrna Beach, Volusia County","N",-80.9269984,29.0258191
"831","26-Aug-2001",2001,"USA","New Smyrna Beach, Volusia County","N",-80.9269984,29.0258191
"832","25-Aug-2001",2001,"USA","New Smyrna Beach, Volusia County","N",-80.9269984,29.0258191
"833","22-Aug-2001",2001,"USA","Daytona, Volusia County ","N",-81.0228331,29.2108147
"834","21-Aug-2001",2001,"USA","New Smyrna Beach, Volusia County","N",-80.9269984,29.0258191
"835","19-Aug-2001",2001,"USA","New Smyrna Beach, Volusia County","N",-80.9269984,29.0258191
"836","19-Aug-2001",2001,"USA","New Smyrna Beach, Volusia County","N",-80.9269984,29.0258191
"837","19-Aug-2001",2001,"USA","Wilbur-by-the-Sea, Volusia County","N",-80.9574023,29.1289351
"838","18-Aug-2001",2001,"USA","New Smyrna Beach, Volusia County","N",-80.9269984,29.0258191
"839","18-Aug-2001",2001,"USA","New Smyrna Beach, Volusia County","N",-80.9269984,29.0258191
"840","18-Aug-2001",2001,"USA","New Smyrna Beach, Volusia County","N",-80.9269984,29.0258191
"841","05-Aug-2001",2001,"USA","Near 70th Avenue, Myrtle Beach, Horry County","N",-78.8217839,33.7402959
"842","26-Jul-2001",2001,"USA","Myrtle Beach, Horry County","N",-78.8866943,33.6890603
"843","25-Jul-2001",2001,"USA","Taverniier, Monroe County","N",-80.5150608,25.0115186
"844","24-Jul-2001",2001,"USA","Marathon , Monroe County","N",-81.0446262,24.726026
"845","21-Jul-2001",2001,"USA","oahu, hawaii","N",-158.0000565,21.4389123
"846","15-Jul-2001",2001,"USA","Santa Rosa Island, Escambia County","N",-86.7290634,30.3978561
"847","15-Jul-2001",2001,"USA","Amelia Island, Nassau County","N",-81.460856,30.6265697
"848","06-Jul-2001",2001,"USA","Gulf Islands National Seashore","N",-88.7910023,30.3913896
"849","03-Jul-2001",2001,"USA","Isle of Palms, Charleston County ","N",-79.7343791,32.8194131
"850","Jul-2001",2001,"USA","Jekyll Island, Glynn County","N",-81.4114142,31.0734919
"851","12-Jun-2001",2001,"USA","Padre Island National Seashore","N",-97.2991836,27.4241558
"852","10-Jun-2001",2001,"USA","Catalina Island","N",-118.4163103,33.3878856
"853","03-Jun-2001",2001,"USA","Off 21st Avenue, Isle of Palms, Charleston County","N",-79.7850052,32.792097
"854","29-May-2001",2001,"USA","Galveston Island","N",-94.9091329,29.241005
"855","23-May-2001",2001,"USA","Coligny Beach, Hilton Head, Beaufort County","N",-80.7510645,32.1414846
"856","20-May-2001",2001,"USA","Fripp Island, Beaufort County","N",-80.4966062,32.317001
"857","03-May-2001",2001,"USA","Jacksonville, Duval County","N",-81.655651,30.3321838
"858","28-Apr-2001",2001,"USA","New Smyrna Beach, Volusia County","N",-80.9269984,29.0258191
"859","13-Apr-2001",2001,"USA","New Smyrna Beach, Volusia County","N",-80.9269984,29.0258191
"860","13-Apr-2001",2001,"USA","New Smyrna Beach, Volusia County","N",-80.9269984,29.0258191
"861","12-Apr-2001",2001,"USA","Waveland Beach, Hutchinson Island, St Lucie County","N",-80.20625,27.275367
"862","12-Apr-2001",2001,"USA","New Smyrna Beach, Volusia County","N",-80.9269984,29.0258191
"863","12-Apr-2001",2001,"USA","New Smyrna Beach, Volusia County","N",-80.9269984,29.0258191
"864","12-Apr-2001",2001,"USA","New Smyrna Beach, Volusia County","N",-80.9269984,29.0258191
"865","12-Apr-2001",2001,"USA","New Smyrna Beach / Waveland, Volusia County","N",-80.9294712,29.0228599
"866","11-Apr-2001",2001,"USA","New Smyrna Beach, Volusia County","N",-80.9269984,29.0258191
"867","11-Apr-2001",2001,"USA","New Smyrna Beach / Waveland, Volusia County","N",-80.9294712,29.0228599
"868","11-Apr-2001",2001,"USA","Ewa Beach, O'ahu","N",-158.0089992,21.313149
"869","10-Apr-2001",2001,"USA","New Smyrna Beach, Volusia County","N",-80.9269984,29.0258191
"870","05-Apr-2001",2001,"USA","Bethune Beach, south of New Smyrna Beach, Volusia County","N",-80.8115369,28.9032104
"871","23-Mar-2001",2001,"USA","Sandy Beach, Oahu","N",-157.6725928,21.2856686
"872","09-Mar-2001",2001,"USA","Coral Cove Park, Jupiter Island, Martin County","N",-80.0788305,26.9634451
"873","09-Jan-2001",2001,"USA","Sunset Cliffs, San Diego","N",-117.2514447,32.726274
"874","17-Nov-2000",2000,"USA","Bonita Springs, Lee County","N",-81.7786972,26.339806
"875","10-Nov-2000",2000,"USA","Vaughn Beach, Flagler County","N",-81.4697637,29.6171181
"876","04-Nov-2000",2000,"USA","1/4 to 1/2 m north of the jetty at Bunkers, Eureka, Humboldt County","N",NA,NA
"877","20-Oct-2000",2000,"USA","Fort Pierce Inlet State Park, St Lucie County","N",-80.3016686,27.4820331
"878","18-Oct-2000",2000,"USA","Olowalu","N",-156.625,20.8147221
"879","14-Oct-2000",2000,"USA","South Beach, Sebastian, Indian River County","N",-80.44795,27.85221
"880","09-Oct-2000",2000,"USA","Lake Worth Inlet/West Palm Beach, Palm Beach County","N",-80.037263,26.772285
"881","06-Oct-2000",2000,"USA","New Smyrna Beach, Volusia County","N",-80.9269984,29.0258191
"882","06-Oct-2000",2000,"USA","New Smyrna Beach, Volusia County","N",-80.9269984,29.0258191
"883","02-Oct-2000",2000,"USA","Wrightsville Beach, New Hanover County","N",-77.7963709,34.2085036
"884","29-Sep-2000",2000,"USA","Mavericks, Half Moon Bay, San Mateo County","N",-122.496687,37.4955696
"885","16-Sep-2000",2000,"USA","Isle of Palms, Charleston County","N",-79.7343791,32.8194131
"886","15-Sep-2000",2000,"USA","Fort Pierce Inlet, St Lucie County","N",-80.2857895,27.4727372
"887","12-Sep-2000",2000,"USA","Sebastian Inlet, Indian River or Brevard County","N",-80.4472737,27.860302
"888","11-Sep-2000",2000,"USA","Daytona Beach Shores, Volusia County","N",-80.9828323,29.1760933
"889","10-Sep-2000",2000,"USA","Vero Beach, Indian River County","N",-80.3972736,27.6386434
"890","08-Sep-2000",2000,"USA","New Smyrna Beach, Volusia County","N",-80.9269984,29.0258191
"891","31-Aug-2000",2000,"USA","New Smyrna Beach, Volusia County","N",-80.9269984,29.0258191
"892","30-Aug-2000",2000,"USA","Boca Ciega Bay, Tampa, Pinellas County","Y",-82.7657265,27.7926967
"893","Reported 27-Aug-2000",2000,"USA","Prince William Sound","N",-147.0970548,60.6905448
"894","21-Aug-2000",2000,"USA","Bouges Bank, Emerald Isle, Carteret County","N",-77.0264769,34.6673555
"895","15-Aug-2000",2000,"USA","Kanaha Beach, Maui","N",-156.4405938,20.8996987
"896","13-Aug-2000",2000,"USA","South Jacksonville Beach, Duval County","N",-81.3961338,30.2841224
"897","12-Aug-2000",2000,"USA","St. Augustine, St. Johns County","N",-81.3124341,29.9012437
"898","11-Aug-2000",2000,"USA","Emerald Isle, Carteret County","N",-76.9507762,34.6779399
"899","10-Aug-2000",2000,"USA","Florida Keys, Florida","Y",-99.7973918,36.0095232
"900","25-Jul-2000",2000,"USA","New Smyrna Beach, Volusia County","N",-80.9269984,29.0258191
"901","22-Jul-2000",2000,"USA","Big Pine Key, Monroe County ","N",-81.353969,24.6698652
"902","17-Jul-2000",2000,"USA","Oceanic Pier, Wrightsville Beach, New Hanover County","N",-77.8049773,34.1935142
"903","16-Jul-2000",2000,"USA","Holden Beach, Brunswick County","N",-78.3038892,33.9135061
"904","10-Jul-2000",2000,"USA","Daytona  Beach, Volusia County","N",-81.0228331,29.2108147
"905","09-Jul-2000",2000,"USA","Neptune Avenue, Ormond Beach, Volusia County","N",-81.0479799,29.299783
"906","07-Jul-2000",2000,"USA","Mustang Island, Corpus Christi","N",-97.1828804,27.6722157
"907","06-Jul-2000",2000,"USA","Pine Island, Corolla, Currituck County","N",-75.7854085,36.2535516
"908","04-Jul-2000",2000,"USA","Daytona Beach, Volusia County","N",-81.0228331,29.2108147
"909","04-Jul-2000",2000,"USA","Artifical reef 3 miles off Manatee Beach, Manatee County","N",NA,NA
"910","02-Jul-2000",2000,"USA","Smyrna Dunes  Park, New Smyrna Beach, Volusia County","N",-80.914393,29.06906
"911","02-Jul-2000",2000,"USA","Smyrna Dunes Park, New Smyrna Beach, Volusia County","N",-80.914393,29.06906
"912","19-Jun-2000",2000,"USA","Seminole Avenue, Ormond Beach, Volusia County","N",-81.0393989,29.285113
"913","13-Jun-2000",2000,"USA","Pensacola Bay, Escambia County","N",-87.1853684,30.4221348
"914","10-Jun-2000",2000,"USA","J.P. Luby Surf Park, Corpus Christi","N",-97.221381,27.6261551
"915","09-Jun-2000",2000,"USA","Gulf Shores, Baldwin County","N",-87.7008193,30.2460361
"916","09-Jun-2000",2000,"USA","Gulf Shores, Baldwin County","N",-87.7008193,30.2460361
"917","02-Jun-2000",2000,"USA","27th Avenue, New Smyrna Beach, Volusia County","N",-80.878707,29.0093323
"918","14-Apr-2000",2000,"USA","On the south side of Ponce Inlet, Volusia County","N",NA,NA
"919","09-Apr-2000",2000,"USA","Municipal Beach, Riviera Beach, Palm Beach County","N",-80.0489355,26.710523
"920","31-Mar-2000",2000,"USA","Santa Rosa Sound Escambia County","N",-86.7768273,30.4019171
"921","26-Mar-2000",2000,"USA","Juno Beach, Palm Beach County","N",-80.0533743,26.8797819
"922","24-Mar-2000",2000,"USA","Floridana Beach, Brevard County","N",-80.497996,27.9456312
"923","Mar-2000",2000,"USA","Midnight Lump (38 miles offshore)","N",NA,NA
"924","21-Feb-2000",2000,"USA","Riviera Beach, Palm Beach County","N",-80.0580969,26.7753405
"925","2000",2000,"USA","Boca Grande, Lee County","N",-82.2616717,26.7490152
"926","14-Dec-1999",1999,"USA","Off Ventura, Anacapa & Santa Cruz Islands","Y",-119.7099239,34.002611
"927","02-Dec-1999",1999,"USA","Boynton Beach, Palm Beach County","N",-80.0905465,26.5317866
"928","30-Nov-1999",1999,"USA","Palm Beach, Palm Beach County","N",-80.2767327,26.6514503
"929","23-Nov-1999",1999,"USA","Big Island off Kona Village Resort, North Kona","N",-155.9851764,19.8317219
"930","15-Nov-1999",1999,"USA","Waddell Reef, Santa Cruz County","N",-122.2719221,37.116401
"931","30-Oct-1999",1999,"USA","Daytona Beach, Volusia County","N",-81.0228331,29.2108147
"932","30-Oct-1999",1999,"USA","Gulfstream Park beach, Palm Beach County","N",-80.0522789,26.5046094
"933","20-Oct-1999",1999,"USA","Pet Den, Satellite Beach, Brevard County","N",NA,NA
"934","01-Oct-1999",1999,"USA","Old Kona Airport State Park","N",-156.0077153,19.6423449
"935","29-Sep-1999",1999,"USA","South side of Ponce de Leon Inlet, Volusia County","N",-80.9220608,29.070584
"936","Reported 16-Sep-1999",1999,"USA","Cape Canaveral, Brevard County","N",-80.6077132,28.3922182
"937","10-Sep-1999",1999,"USA","Isle of Palms, Charleston County","N",-79.7343791,32.8194131
"938","05-Sep-1999",1999,"USA","Fort Pierce Inlet, St. Lucie County","N",-80.2857895,27.4727372
"939","04-Sep-1999",1999,"USA","World Typhoon Lagoon, Disney Water Park, Orange County","N",-81.5255579,28.36644
"940","04-Sep-1999",1999,"USA","Ponce Inlet, Volusia County","N",-80.9369983,29.0963729
"941","26-Aug-1999",1999,"USA","Bethune Beach, south of New Smyrna Beach, Volusia County","N",-80.8115369,28.9032104
"942","24-Aug-1999",1999,"USA","Fort Fisher, New Hanover County","N",-77.9177488,33.9716424
"943","21-Aug-1999",1999,"USA","Ponce Inlet, Volusia County","N",-80.9369983,29.0963729
"944","16-Aug-1999",1999,"USA","Grand Strand, Myrtle Beach, Horry County","N",-78.8136339,33.7460055
"945","05-Aug-1999",1999,"USA","New Smyrna Beach, Volusia County","N",-80.9269984,29.0258191
"946","26-Jul-1999",1999,"USA","Two miles off Key Colony Beach, Monroe County","N",NA,NA
"947","21-Jul-1999",1999,"USA","Honoli'i in Hilo (west side of Big Island)","N",-155.0911922,19.7544931
"948","06-Jul-1999",1999,"USA","Charleston","N",-79.9310512,32.7764749
"949","04-Jul-1999",1999,"USA","Pensacola  Beach, Escambia County","N",-87.1497698,30.3328039
"950","19-Jun-1999",1999,"USA","11 miles off Dog Island in the Gulf of Mexico, Franklin County","N",NA,NA
"951","17-Jun-1999",1999,"USA","South of Ponce Inlet, Volusia County","N",-80.9369983,29.0963729
"952","12-Jun-1999",1999,"USA","Atlantiic Beach, Duval County","N",-81.398696,30.3344077
"953","09-Jun-1999",1999,"USA","Atlantic Dunes Park, Delray Beach, Palm Beach County","N",-80.0608266,26.4420229
"954","01-Apr-1999",1999,"USA","Hobe Sound Beach, Palm Beach County","N",-80.0912729,27.0046255
"955","18-Mar-1999",1999,"USA","Olowalu side of Lahina, Maui ","Y",-156.6156274,20.8090713
"956","08-Mar-1999",1999,"USA","Kealia Beach, Kaua'i","N",-159.3046322,22.0992517
"957","05-Mar-1999",1999,"USA","Quarter mile offshore in Kaanapali, West Maui","N",NA,NA
"958","26-Feb-1999",1999,"USA","Frying Pan Shoals","N",-77.9487705,33.7974668
"959","03-Feb-1999",1999,"USA","Hobe Sound, Martin County","N",-80.1364323,27.059498
"960","1999",1999,"USA","Sandridge Beach, Virginia Beach, Princess Anne County","N",-76.09115,36.7771461
"961","24-Dec-1998",1998,"USA","Ormond Beach, Volusia County","N",-81.0558894,29.2858129
"962","21-Nov-1998",1998,"USA","Ocean Beach, Jaycee Park, Vero Beach, Indian River County","Y",-80.3592747,27.6653214
"963","14-Nov-1998",1998,"USA","New Smyrna Beach, Volusia County","N",-80.9269984,29.0258191
"964","11-Nov-1998",1998,"USA","South Beach Park, Indian River County","N",-80.3519492,27.6328517
"965","05-Nov-1998",1998,"USA","Winchester Bay","N",-124.1748369,43.6770608
"966","24-Oct-1998",1998,"USA","Jupiter Beach, Palm Beach County","N",-80.0704085,26.9388668
"967","10-Oct-1998",1998,"USA","Sebastian Inlet, Indian River County","N",-80.4472737,27.860302
"968","01-Oct-1998",1998,"USA","New Smyrna Beach, Volusia County","N",-80.9269984,29.0258191
"969","27-Sep-1998",1998,"USA","The Rocks, Hutchinson Island, Martin County","N",-80.2488596,27.3545667
"970","22-Sep-1998",1998,"USA","New Smyrna Beach, Volusia County","N",-80.9269984,29.0258191
"971","14-Sep-1998",1998,"USA","Stuart Beach, Martin County","N",-80.1750214,27.2143933
"972","30-Aug-1998",1998,"USA","Ponce Inlet, Volusia County","N",-80.9369983,29.0963729
"973","26-Aug-1998",1998,"USA","Stinson Beach, Marin County","N",-122.6444263,37.9004816
"974","Reported      23-Aug-1998",1998,"USA","Virginia Beach","N",-75.977985,36.8529263
"975","13-Aug-1998",1998,"USA","Ponce Inlet, Volusia County","N",-80.9369983,29.0963729
"976","25-Jul-1998",1998,"USA","New Smyrna Beach, Volusia County","N",-80.9269984,29.0258191
"977","08-Jun-1998",1998,"USA","Daytona Beach, Volusia County","N",-81.0228331,29.2108147
"978","25-May-1998",1998,"USA","New Smyrna Beach, Volusia County","N",-80.9269984,29.0258191
"979","16-May-1998",1998,"USA","Pecks Lake, Martin County","N",-80.1463473,27.1182096
"980","16-May-1998",1998,"USA","Walden Rocks, St. Lucie County","N",-80.3277454,27.3403955
"981","21-Apr-1998",1998,"USA","Gleneden Beach","N",-124.034593,44.8814151
"982","17-Apr-1998",1998,"USA","Marathon, Monroe County","N",-81.0446262,24.726026
"983","31-Mar-1998",1998,"USA","Jensen Beach Park, Martin County","N",-80.2220231,27.2250387
"984","08-Mar-1998",1998,"USA","Loggerhead Park, Juno Beach, Palm Beach County","N",-80.055979,26.884925
"985","23-Feb-1998",1998,"USA","Jensen Beach, Martin County","N",-80.2297697,27.2544906
"986","1998",1998,"USA","Wreck of the Navy Barge, 22 miles SE of Rudee ","N",NA,NA
"987","25-Dec-1997",1997,"USA","Fort Lauderdale, Broward County","N",-80.1373174,26.1224386
"988","25-Dec-1997",1997,"USA","Hollywood Beach, Broward County","N",-80.1170355,26.0086787
"989","Reported 05-Nov-1997",1997,"USA","","N",NA,NA
"990","28-Oct-1997",1997,"USA","Waiokapua Bay/Majors Bay, Brennecke Beach, Poipu, Kaua'i Island","N",NA,NA
"991","24-Oct-1997",1997,"USA","North Jetty, Fort Pierce Inlet State Park, St. Lucie County","N",-80.2915513,27.4698041
"992","21-Oct-1997",1997,"USA","North Jetty, Fort Pierce Inlet State Park, St. Lucie County","N",-80.2915513,27.4698041
"993","04-Oct-1997",1997,"USA","Daytona Beach, Volusia County","N",-81.0228331,29.2108147
"994","09-Sep-1997",1997,"USA","Volusia County","N",-81.0754657,29.0279842
"995","08-Sep-1997",1997,"USA","New Smyrna Beach, Volusia County","N",-80.9269984,29.0258191
"996","06-Sep-1997",1997,"USA","New Smyrna Beach, Volusia County","N",-80.9269984,29.0258191
"997","30-Aug-1997",1997,"USA","New Smyrna Beach, Volusia County","N",-80.9269984,29.0258191
"998","27-Aug-1997",1997,"USA","New Smyrna Beach, Volusia County","N",-80.9269984,29.0258191
"999","24-Aug-1997",1997,"USA","Clam Beach, near Eureka, Humboldt County","N",-124.1145304,40.9951031
"1000","11-Aug-1997",1997,"USA","New Smyrna Beach, Volusia County","N",-80.9269984,29.0258191
"1001","10-Aug-1997",1997,"USA","New Smyrna Beach, Volusia County","N",-80.9269984,29.0258191
"1002","09-Aug-1997",1997,"USA","New Smyrna Beach, Volusia County","N",-80.9269984,29.0258191
"1003","05-Aug-1997",1997,"USA","East Beach, Galveston","N",-94.7543466,29.3171995
"1004","04-Aug-1997",1997,"USA","Carysfort Lighthouse, Key Largo, Monroe County","N",NA,NA
"1005","02-Aug-1997",1997,"USA","New Smyrna Beach, Volusia County","N",-80.9269984,29.0258191
"1006","02-Aug-1997",1997,"USA","New Smyrna Beach, Volusia County","N",-80.9269984,29.0258191
"1007","14-Jul-1997",1997,"USA","Myrtle Beach, Horry County","N",-78.8866943,33.6890603
"1008","24-Jun-1997",1997,"USA","Sunset Beach, Oahu","N",-158.0409157,21.6736608
"1009","09-Jun-1997",1997,"USA","Palm Beach County","N",-80.2767327,26.6514503
"1010","02-Jun-1997",1997,"USA","Daytona Beach Shores,  Volusia County","N",-80.9828323,29.1760933
"1011","31-May-1997",1997,"USA","In Gulf of Mexico 17 miles off Weeki Wachee","N",NA,NA
"1012","31-May-1997",1997,"USA","Flagler Beach, Flagler County","N",-81.1270035,29.4749754
"1013","31-May-1997",1997,"USA","Flagler Beach, Flagler County","N",-81.1270035,29.4749754
"1014","21-Feb-1997",1997,"USA","Sunset Beach, O'ahu","UNKNOWN",-158.0409157,21.6736608
"1015","29-Nov-1996",1996,"USA","Salmon Creek Beach, Sonoma County","N",-123.0685179,38.359293
"1016","18-Nov-1996",1996,"USA","Coral Cove Park, Palm Beach County","N",-80.0789106,26.9636245
"1017","05-Oct-1996",1996,"USA","Dillon Beach, Marin County","N",-122.9652768,38.2507515
"1018","03-Oct-1996",1996,"USA","Cocoa Beach, Brevard County","N",-80.6075513,28.3200067
"1019","03-Oct-1996",1996,"USA","North Salmon Creek Beach, Sonoma County","N",-123.0685179,38.359293
"1020","18-Sep-1996",1996,"USA","New Smyrna Beach, Volusia County","N",-80.9269984,29.0258191
"1021","06-Sep-1996",1996,"USA","New Smyrna Beach, Volusia County","N",-80.9269984,29.0258191
"1022","02-Sep-1996",1996,"USA","Behune Beach, Volusia County","N",-80.844768,28.941441
"1023","02-Sep-1996",1996,"USA","Bethune Beach, Volusia County","N",-80.844768,28.941441
"1024","01-Sep-1996",1996,"USA","Garden City Beach, Horry County","N",-79.0086464,33.5929472
"1025","29-Aug-1996",1996,"USA","Paukukalo, Maui","N",-156.4877778,20.9086111
"1026","13-Aug-1996",1996,"USA","Bird Rock, Tomales Point","N",-122.974766,38.2143777
"1027","11-Aug-1996",1996,"USA","Bayshore Garden, Sarasota Bay, Sarasota County","N",-82.5877118,27.4177012
"1028","26-Jul-1996",1996,"USA","Wiggins Pass, Collier County","N",-81.8279833,26.2816886
"1029","21-Jul-1996",1996,"USA","Truro (Cape Cod), Barnstable County","N",-70.0490107,41.99477
"1030","20-Jul-1996",1996,"USA","New Smyrna Beach, Volusia County","N",-80.9269984,29.0258191
"1031","14-Jul-1996",1996,"USA","Nakalele Point, Maui","UNKNOWN",-156.5885639,21.0270885
"1032","10-Jul-1996",1996,"USA","New Smyrna Beach, Volusia County","N",-80.9269984,29.0258191
"1033","04-Jul-1996",1996,"USA","Public Beach, Siesta Key, Sarasota County","N",-82.5533185,27.2651317
"1034","25-Jun-1996",1996,"USA","Fripp Island, Beaufort County","N",-80.4966062,32.317001
"1035","18-May-1996",1996,"USA","South of Ponce Inlet, Volusia County","N",-80.9369983,29.0963729
"1036","07-May-1996",1996,"USA","Shark Shallows, Ponce Inlet, Volusia County","N",NA,NA
"1037","28-Apr-1996",1996,"USA","La'ie Point, O'ahu","UNKNOWN",-157.9153312,21.6517495
"1038","Reported      19-Feb-1996",1996,"USA","Charleston","N",-79.9310512,32.7764749
"1039","23-Jan-1996",1996,"USA","Florida Keys, Florida, Monroe County","N",-99.7973918,36.0095232
"1040","16-Jan-1996",1996,"USA","Ka’eleki’I Point, Maui","N",18.49041,-22.95764
"1041","1996",1996,"USA","","N",NA,NA
"1042","18-Dec-1995",1995,"USA","Southwest of O'ahu","UNKNOWN",-158.0000565,21.4389123
"1043","25-Nov-1995",1995,"USA","Ha'ena, Kaua'i","N",-159.5804942,22.2208387
"1044","Reported 28-Oct-1995",1995,"USA","","N",NA,NA
"1045","21-Oct-1995",1995,"USA","North Beach, St. Lucie County","N",-80.309162,27.5171304
"1046","01-Oct-1995",1995,"USA","Ormond Beach, Volusia County","N",-81.0558894,29.2858129
"1047","30-Sep-1995",1995,"USA","Crescent Beach, St. Augustine, St. Johns County","N",-81.2745922,29.8464351
"1048","30-Sep-1995",1995,"USA","North Beach, Hutchinson Island, St. Lucie County","N",-80.2488596,27.3545667
"1049","28-Sep-1995",1995,"USA","Davenport Landing, Santa Cruz County","N",-122.2158654,37.0258837
"1050","19-Sep-1995",1995,"USA","Matanzas Bay Inlet, St. Johns County","N",-81.2392182,29.7151961
"1051","17-Sep-1995",1995,"USA","Daytona Beach, Volusia County","N",-81.0228331,29.2108147
"1052","13-Sep-1995",1995,"USA","Alligator Reef, off Islamorada, Monroe County","Y",-80.6188171,24.8517748
"1053","03-Sep-1995",1995,"USA","Shelter Cove, Humboldt County","N",-124.0730866,40.0304212
"1054","03-Sep-1995",1995,"USA","Bald Head Island, Brunswick County","N",-77.9944332,33.8618418
"1055","31-Aug-1995",1995,"USA","North Beach Inlet, St. Lucie County","N",-80.3016686,27.4820331
"1056","31-Aug-1995",1995,"USA","Myrtle Beach, Horry County","N",-78.8866943,33.6890603
"1057","26-Aug-1995",1995,"USA","Crescent Beach, St. Johns County","N",-81.2536786,29.76886
"1058","26-Aug-1995",1995,"USA","Ponce de Leon Inlet, Volusia County","N",-80.9220608,29.070584
"1059","25-Aug-1995",1995,"USA","Off Masonboro Island, New Hanover County","N",-77.8510213,34.1329044
"1060","22-Aug-1995",1995,"USA","Wrightsville Beach, New Hanover County","N",-77.7963709,34.2085036
"1061","22-Aug-1995",1995,"USA","Ponce de Leon Inlet, Volusia County","N",-80.9220608,29.070584
"1062","21-Aug-1995",1995,"USA","Cape Lookout Bight","N",-76.5336609,34.6075152
"1063","15-Aug-1995",1995,"USA","Daytona Beach, Volusia County ","N",-81.0228331,29.2108147
"1064","13-Aug-1995",1995,"USA","Emerald Isle, Carteret County","Y",-76.9507762,34.6779399
"1065","10-Aug-1995",1995,"USA","Ponce Inlet, Volusia County","N",-80.9369983,29.0963729
"1066","10-Aug-1995",1995,"USA","Ocean Lakes Campground, south of Myrtle Beach, Horry County","N",-78.9591694,33.6249115
"1067","07-Aug-1995",1995,"USA","Ponce de Leon Inlet, Volusia County ","N",-80.9220608,29.070584
"1068","Aug-1995",1995,"USA","Carmel, Monterey County","N",-121.9232879,36.5552386
"1069","28-Jul-1995",1995,"USA","New Smyrna Beach, Volusia County","N",-80.9269984,29.0258191
"1070","28-Jul-1995",1995,"USA","New Smyrna Beach, Volusia County","N",-80.9269984,29.0258191
"1071","28-Jul-1995",1995,"USA","New Smyrna Beach, Volusia County","N",-80.9269984,29.0258191
"1072","28-Jul-1995",1995,"USA","New Smyrna Beach, Volusia County","N",-80.9269984,29.0258191
"1073","28-Jul-1995",1995,"USA","Pawleys Island, Georgetown County","N",-79.1214313,33.4332236
"1074","24-Jul-1995",1995,"USA","Pawleys Island, Georgetown County","N",-79.1214313,33.4332236
"1075","23-Jul-1995",1995,"USA","South Jetty, New Smyrna Beach, Volusia County","N",-80.914393,29.06906
"1076","06-Jul-1995",1995,"USA","Port Aransas","N",-97.0610994,27.8339158
"1077","03-Jul-1995",1995,"USA","Cat Island, Harrison County","N",-89.1014933,30.2280136
"1078","Early Jul-1995",1995,"USA","Off 29th Avenue, Myrtle Beach, Horry County","N",-78.8728066,33.7154089
"1079","30-Jun-1995",1995,"USA","Bluefish Cove, Pt. Lobos State Park, Monterey County","N",-121.9422821,36.5159123
"1080","24-Jun-1995",1995,"USA","LaJolla Shores, San Diego County","N",-117.2529145,32.8577055
"1081","23-Jun-1995",1995,"USA","Tybee Island, Chatham County","N",-80.845666,32.0002152
"1082","17-Jun-1995",1995,"USA","Garden City Beach, Horry County","N",-79.0086464,33.5929472
"1083","17-Jun-1995",1995,"USA","Jensen Beach Park, Martin County","N",-80.2220231,27.2250387
"1084","16-Jun-1995",1995,"USA","Tiger Shores Beach, Martin County","N",-80.1790801,27.2210598
"1085","14-Jun-1995",1995,"USA","Opposite Grand Wailea Resort, Wailea, Maui","N",-156.441238,20.6842303
"1086","26-May-1995",1995,"USA","Vero Beach, Indian River County","N",-80.3972736,27.6386434
"1087","16-Apr-1995",1995,"USA","New Smyrna Beach, Volusia County","N",-80.9269984,29.0258191
"1088","13-Apr-1995",1995,"USA","Ormond Beach, Volusia County","N",-81.0558894,29.2858129
"1089","1995",1995,"USA","Carolina Beach","Y",-77.8935966,34.0351726
"1090","1995",1995,"USA","Pawleys Island, Georgetown County","UNKNOWN",-79.1214313,33.4332236
"1091","18-Dec-1994",1994,"USA","Kinikini, Mana, Kaua'i","N",NA,NA
"1092","09-Dec-1994",1994,"USA","San Miguel Island, Santa Barbara County","Y",-120.3723741,34.037616
"1093","13-Nov-1994",1994,"USA","Off the Hanalei River, Kaua'i","N",-159.5008333,22.2177778
